$GPGGA,110621.871,,,,,0,00,,,M,,M,,*73
$GPRMC,110621.871,V,,,,,0.00,0.00,120417,,,N*47
$GPGGA,110622.871,,,,,0,04,,,M,,M,,*74
$GPRMC,110622.871,V,,,,,0.07,96.78,120417,,,N*73
$GPGGA,110623.871,,,,,0,03,,,M,,M,,*72
$GPRMC,110623.871,V,,,,,0.26,22.27,120417,,,N*74
$GPGGA,110624.866,4139.5345,N,07350.8934,W,1,06,1.22,78.8,M,-34.1,M,,*62
$GPRMC,110624.866,A,4139.5345,N,07350.8934,W,0.78,169.82,120417,,,A*71
$GPGGA,110625.877,4139.5313,N,07350.8891,W,1,05,1.48,78.9,M,-34.1,M,,*60
$GPRMC,110625.877,A,4139.5313,N,07350.8891,W,0.78,165.95,120417,,,A*77
$GPGGA,110626.862,4139.5354,N,07350.8985,W,1,07,1.17,78.9,M,-34.1,M,,*68
$GPRMC,110626.862,A,4139.5354,N,07350.8985,W,0.59,167.64,120417,,,A*78
$GPGGA,110627.854,4139.5402,N,07350.9057,W,1,07,1.17,78.9,M,-34.1,M,,*6F
$GPRMC,110627.854,A,4139.5402,N,07350.9057,W,0.63,187.78,120417,,,A*75
$GPGGA,110628.854,4139.5407,N,07350.9066,W,1,07,1.17,78.9,M,-34.1,M,,*67
$GPRMC,110628.854,A,4139.5407,N,07350.9066,W,0.51,176.54,120417,,,A*7C
$GPGGA,110629.855,4139.5412,N,07350.9065,W,1,07,1.17,78.9,M,-34.1,M,,*60
$GPRMC,110629.855,A,4139.5412,N,07350.9065,W,0.28,192.03,120417,,,A*7D
$GPGGA,110630.855,4139.5416,N,07350.9065,W,1,07,1.17,78.9,M,-34.1,M,,*6C
$GPRMC,110630.855,A,4139.5416,N,07350.9065,W,0.28,194.05,120417,,,A*71
$GPGGA,110631.871,4139.5367,N,07350.9006,W,1,07,1.17,78.9,M,-34.1,M,,*6F
$GPRMC,110631.871,A,4139.5367,N,07350.9006,W,0.60,118.33,120417,,,A*7F
$GPGGA,110633.000,4139.5374,N,07350.9017,W,1,07,1.17,78.9,M,-34.1,M,,*61
$GPRMC,110633.000,A,4139.5374,N,07350.9017,W,0.61,121.20,120417,,,A*78
$GPGGA,110634.000,4139.5371,N,07350.9025,W,1,08,1.14,79.0,M,-34.1,M,,*66
$GPRMC,110634.000,A,4139.5371,N,07350.9025,W,0.37,110.61,120417,,,A*7F
$GPGGA,110635.000,4139.5372,N,07350.9032,W,1,08,1.14,79.0,M,-34.1,M,,*62
$GPRMC,110635.000,A,4139.5372,N,07350.9032,W,0.14,36.25,120417,,,A*4F
$GPGGA,110636.000,4139.5374,N,07350.9037,W,1,08,1.14,79.0,M,-34.1,M,,*62
$GPRMC,110636.000,A,4139.5374,N,07350.9037,W,0.11,27.16,120417,,,A*4A
$GPGGA,110637.000,4139.5370,N,07350.9038,W,1,08,1.14,79.0,M,-34.1,M,,*68
$GPRMC,110637.000,A,4139.5370,N,07350.9038,W,0.22,296.61,120417,,,A*78
$GPGGA,110638.000,4139.5371,N,07350.9039,W,1,08,1.14,79.0,M,-34.1,M,,*67
$GPRMC,110638.000,A,4139.5371,N,07350.9039,W,0.23,276.82,120417,,,A*75
$GPGGA,110639.000,4139.5369,N,07350.9037,W,1,08,1.14,78.9,M,-34.1,M,,*69
$GPRMC,110639.000,A,4139.5369,N,07350.9037,W,0.13,250.80,120417,,,A*76
$GPGGA,110640.000,4139.5368,N,07350.9037,W,1,08,1.14,78.9,M,-34.1,M,,*66
$GPRMC,110640.000,A,4139.5368,N,07350.9037,W,0.04,254.87,120417,,,A*7C
$GPGGA,110641.000,4139.5368,N,07350.9038,W,1,08,1.14,78.9,M,-34.1,M,,*68
$GPRMC,110641.000,A,4139.5368,N,07350.9038,W,0.12,332.98,120417,,,A*7A
$GPGGA,110642.000,4139.5368,N,07350.9039,W,1,08,1.14,78.9,M,-34.1,M,,*6A
$GPRMC,110642.000,A,4139.5368,N,07350.9039,W,0.11,325.88,120417,,,A*7C
$GPGGA,110643.000,4139.5366,N,07350.9039,W,1,08,1.14,78.9,M,-34.1,M,,*65
$GPRMC,110643.000,A,4139.5366,N,07350.9039,W,0.12,203.04,120417,,,A*71
$GPGGA,110644.000,4139.5364,N,07350.9040,W,1,08,1.14,78.9,M,-34.1,M,,*6E
$GPRMC,110644.000,A,4139.5364,N,07350.9040,W,0.17,198.20,120417,,,A*78
$GPGGA,110645.000,4139.5365,N,07350.9042,W,1,08,1.14,78.9,M,-34.1,M,,*6C
$GPRMC,110645.000,A,4139.5365,N,07350.9042,W,0.13,258.44,120417,,,A*73
$GPGGA,110646.000,4139.5365,N,07350.9043,W,1,08,1.14,78.9,M,-34.1,M,,*6E
$GPRMC,110646.000,A,4139.5365,N,07350.9043,W,0.03,198.40,120417,,,A*7B
$GPGGA,110647.000,4139.5365,N,07350.9044,W,1,08,1.14,78.9,M,-34.1,M,,*68
$GPRMC,110647.000,A,4139.5365,N,07350.9044,W,0.05,91.82,120417,,,A*4D
$GPGGA,110648.000,4139.5364,N,07350.9051,W,1,08,1.14,78.9,M,-34.1,M,,*62
$GPRMC,110648.000,A,4139.5364,N,07350.9051,W,0.32,266.51,120417,,,A*77
$GPGGA,110649.000,4139.5361,N,07350.9056,W,1,08,1.14,78.9,M,-34.1,M,,*61
$GPRMC,110649.000,A,4139.5361,N,07350.9056,W,0.77,230.18,120417,,,A*7B
$GPGGA,110650.000,4139.5362,N,07350.9057,W,1,08,1.14,79.0,M,-34.1,M,,*63
$GPRMC,110650.000,A,4139.5362,N,07350.9057,W,0.09,223.94,120417,,,A*7E
$GPGGA,110651.000,4139.5361,N,07350.9057,W,1,08,1.14,79.0,M,-34.1,M,,*61
$GPRMC,110651.000,A,4139.5361,N,07350.9057,W,0.06,232.20,120417,,,A*7C
$GPGGA,110652.000,4139.5360,N,07350.9058,W,1,08,1.14,79.0,M,-34.1,M,,*6C
$GPRMC,110652.000,A,4139.5360,N,07350.9058,W,0.09,251.58,120417,,,A*74
$GPGGA,110653.000,4139.5360,N,07350.9059,W,1,08,1.14,79.0,M,-34.1,M,,*6C
$GPRMC,110653.000,A,4139.5360,N,07350.9059,W,0.14,49.15,120417,,,A*4A
$GPGGA,110654.000,4139.5360,N,07350.9059,W,1,08,1.14,79.0,M,-34.1,M,,*6B
$GPRMC,110654.000,A,4139.5360,N,07350.9059,W,0.12,117.52,120417,,,A*72
$GPGGA,110655.000,4139.5359,N,07350.9061,W,1,08,1.14,79.0,M,-34.1,M,,*6B
$GPRMC,110655.000,A,4139.5359,N,07350.9061,W,0.58,227.97,120417,,,A*75
$GPGGA,110656.000,4139.5359,N,07350.9062,W,1,08,1.14,79.1,M,-34.1,M,,*6A
$GPRMC,110656.000,A,4139.5359,N,07350.9062,W,0.04,48.02,120417,,,A*4B
$GPGGA,110657.000,4139.5359,N,07350.9061,W,1,08,1.14,79.1,M,-34.1,M,,*68
$GPRMC,110657.000,A,4139.5359,N,07350.9061,W,0.02,77.34,120417,,,A*46
$GPGGA,110658.000,4139.5359,N,07350.9060,W,1,08,1.14,79.1,M,-34.1,M,,*66
$GPRMC,110658.000,A,4139.5359,N,07350.9060,W,0.10,340.99,120417,,,A*7B
$GPGGA,110659.000,4139.5359,N,07350.9060,W,1,08,1.14,79.1,M,-34.1,M,,*67
$GPRMC,110659.000,A,4139.5359,N,07350.9060,W,0.15,348.65,120417,,,A*74
$GPGGA,110700.000,4139.5359,N,07350.9060,W,1,08,1.14,79.1,M,-34.1,M,,*6A
$GPRMC,110700.000,A,4139.5359,N,07350.9060,W,0.10,101.57,120417,,,A*72
$GPGGA,110701.000,4139.5359,N,07350.9060,W,1,08,1.14,79.1,M,-34.1,M,,*6B
$GPRMC,110701.000,A,4139.5359,N,07350.9060,W,0.88,79.34,120417,,,A*49
$GPGGA,110702.000,4139.5359,N,07350.9053,W,1,08,1.14,79.1,M,-34.1,M,,*68
$GPRMC,110702.000,A,4139.5359,N,07350.9053,W,1.68,84.90,120417,,,A*49
$GPGGA,110703.000,4139.5360,N,07350.9046,W,1,08,1.14,79.1,M,-34.1,M,,*67
$GPRMC,110703.000,A,4139.5360,N,07350.9046,W,1.90,85.89,120417,,,A*48
$GPGGA,110704.000,4139.5361,N,07350.9039,W,1,08,1.14,79.2,M,-34.1,M,,*6A
$GPRMC,110704.000,A,4139.5361,N,07350.9039,W,1.75,70.27,120417,,,A*43
$GPGGA,110705.000,4139.5363,N,07350.9032,W,1,08,1.14,79.2,M,-34.1,M,,*62
$GPRMC,110705.000,A,4139.5363,N,07350.9032,W,1.87,66.55,120417,,,A*44
$GPGGA,110706.000,4139.5367,N,07350.9024,W,1,08,1.14,79.2,M,-34.1,M,,*62
$GPRMC,110706.000,A,4139.5367,N,07350.9024,W,2.78,52.29,120417,,,A*4B
$GPGGA,110707.000,4139.5374,N,07350.9015,W,1,08,1.14,79.2,M,-34.1,M,,*63
$GPRMC,110707.000,A,4139.5374,N,07350.9015,W,3.59,33.78,120417,,,A*4B
$GPGGA,110708.000,4139.5384,N,07350.9010,W,1,08,1.14,79.2,M,-34.1,M,,*66
$GPRMC,110708.000,A,4139.5384,N,07350.9010,W,3.53,11.52,120417,,,A*4C
$GPGGA,110709.000,4139.5394,N,07350.9009,W,1,08,1.14,79.1,M,-34.1,M,,*6D
$GPRMC,110709.000,A,4139.5394,N,07350.9009,W,3.44,351.36,120417,,,A*77
$GPGGA,110710.000,4139.5403,N,07350.9010,W,1,08,1.14,79.0,M,-34.1,M,,*65
$GPRMC,110710.000,A,4139.5403,N,07350.9010,W,2.25,331.86,120417,,,A*75
$GPGGA,110711.000,4139.5406,N,07350.9011,W,1,08,1.14,79.0,M,-34.1,M,,*60
$GPRMC,110711.000,A,4139.5406,N,07350.9011,W,0.01,345.23,120417,,,A*78
$GPGGA,110712.000,4139.5407,N,07350.9010,W,1,08,1.14,79.0,M,-34.1,M,,*63
$GPRMC,110712.000,A,4139.5407,N,07350.9010,W,0.07,330.29,120417,,,A*75
$GPGGA,110713.000,4139.5407,N,07350.9008,W,1,08,1.14,79.0,M,-34.1,M,,*6B
$GPRMC,110713.000,A,4139.5407,N,07350.9008,W,0.58,135.41,120417,,,A*7E
$GPGGA,110714.000,4139.5404,N,07350.9001,W,1,08,1.14,79.1,M,-34.1,M,,*67
$GPRMC,110714.000,A,4139.5404,N,07350.9001,W,3.25,122.58,120417,,,A*74
$GPGGA,110715.000,4139.5401,N,07350.8988,W,1,08,1.14,79.2,M,-34.1,M,,*69
$GPRMC,110715.000,A,4139.5401,N,07350.8988,W,3.92,102.24,120417,,,A*7C
$GPGGA,110716.000,4139.5400,N,07350.8971,W,1,08,1.14,79.2,M,-34.1,M,,*6D
$GPRMC,110716.000,A,4139.5400,N,07350.8971,W,4.65,93.48,120417,,,A*44
$GPGGA,110717.000,4139.5400,N,07350.8953,W,1,08,1.14,79.3,M,-34.1,M,,*6D
$GPRMC,110717.000,A,4139.5400,N,07350.8953,W,4.38,92.04,120417,,,A*44
$GPGGA,110718.000,4139.5398,N,07350.8934,W,1,08,1.14,79.4,M,-34.1,M,,*62
$GPRMC,110718.000,A,4139.5398,N,07350.8934,W,5.36,102.22,120417,,,A*7F
$GPGGA,110719.000,4139.5392,N,07350.8912,W,1,08,1.14,79.6,M,-34.1,M,,*6F
$GPRMC,110719.000,A,4139.5392,N,07350.8912,W,6.70,120.02,120417,,,A*73
$GPGGA,110720.000,4139.5379,N,07350.8889,W,1,08,1.14,79.7,M,-34.1,M,,*62
$GPRMC,110720.000,A,4139.5379,N,07350.8889,W,8.78,135.96,120417,,,A*70
$GPGGA,110721.000,4139.5356,N,07350.8865,W,1,08,1.14,80.0,M,-34.1,M,,*6D
$GPRMC,110721.000,A,4139.5356,N,07350.8865,W,11.73,146.86,120417,,,A*48
$GPGGA,110722.000,4139.5322,N,07350.8839,W,1,08,1.14,80.2,M,-34.1,M,,*66
$GPRMC,110722.000,A,4139.5322,N,07350.8839,W,15.47,153.50,120417,,,A*4D
$GPGGA,110723.000,4139.5277,N,07350.8809,W,1,08,1.14,81.0,M,-34.1,M,,*66
$GPRMC,110723.000,A,4139.5277,N,07350.8809,W,19.46,155.33,120417,,,A*40
$GPGGA,110724.000,4139.5223,N,07350.8777,W,1,08,1.14,81.6,M,-34.1,M,,*60
$GPRMC,110724.000,A,4139.5223,N,07350.8777,W,22.66,157.31,120417,,,A*4A
$GPGGA,110725.000,4139.5160,N,07350.8743,W,1,08,1.14,82.1,M,-34.1,M,,*66
$GPRMC,110725.000,A,4139.5160,N,07350.8743,W,25.61,158.34,120417,,,A*42
$GPGGA,110726.000,4139.5089,N,07350.8706,W,1,08,1.14,82.9,M,-34.1,M,,*6A
$GPRMC,110726.000,A,4139.5089,N,07350.8706,W,28.11,158.15,120417,,,A*4F
$GPGGA,110727.000,4139.5012,N,07350.8665,W,1,08,1.14,83.6,M,-34.1,M,,*63
$GPRMC,110727.000,A,4139.5012,N,07350.8665,W,30.03,158.44,120417,,,A*46
$GPGGA,110728.000,4139.4931,N,07350.8624,W,1,08,1.14,84.4,M,-34.1,M,,*65
$GPRMC,110728.000,A,4139.4931,N,07350.8624,W,31.68,159.74,120417,,,A*4B
$GPGGA,110729.000,4139.4846,N,07350.8583,W,1,08,1.33,85.0,M,-34.1,M,,*6B
$GPRMC,110729.000,A,4139.4846,N,07350.8583,W,33.17,161.31,120417,,,A*45
$GPGGA,110730.000,4139.4756,N,07350.8543,W,1,08,1.33,85.6,M,-34.1,M,,*67
$GPRMC,110730.000,A,4139.4756,N,07350.8543,W,34.49,161.61,120417,,,A*46
$GPGGA,110731.000,4139.4663,N,07350.8501,W,1,08,1.33,86.1,M,-34.1,M,,*63
$GPRMC,110731.000,A,4139.4663,N,07350.8501,W,35.71,161.55,120417,,,A*4B
$GPGGA,110732.000,4139.4566,N,07350.8458,W,1,08,1.14,86.6,M,-34.1,M,,*69
$GPRMC,110732.000,A,4139.4566,N,07350.8458,W,36.89,161.17,120417,,,A*41
$GPGGA,110733.000,4139.4466,N,07350.8414,W,1,08,1.14,87.1,M,-34.1,M,,*67
$GPRMC,110733.000,A,4139.4466,N,07350.8414,W,38.02,161.25,120417,,,A*45
$GPGGA,110734.000,4139.4363,N,07350.8368,W,1,08,1.14,87.4,M,-34.1,M,,*6B
$GPRMC,110734.000,A,4139.4363,N,07350.8368,W,38.94,161.37,120417,,,A*40
$GPGGA,110735.000,4139.4258,N,07350.8321,W,1,08,1.14,87.6,M,-34.1,M,,*6C
$GPRMC,110735.000,A,4139.4258,N,07350.8321,W,39.55,161.55,120417,,,A*4D
$GPGGA,110736.000,4139.4153,N,07350.8274,W,1,08,1.14,87.8,M,-34.1,M,,*68
$GPRMC,110736.000,A,4139.4153,N,07350.8274,W,39.61,161.18,120417,,,A*49
$GPGGA,110737.000,4139.4048,N,07350.8226,W,1,08,1.14,87.9,M,-34.1,M,,*64
$GPRMC,110737.000,A,4139.4048,N,07350.8226,W,39.78,161.24,120417,,,A*43
$GPGGA,110738.000,4139.3943,N,07350.8178,W,1,08,1.14,87.8,M,-34.1,M,,*67
$GPRMC,110738.000,A,4139.3943,N,07350.8178,W,39.53,161.45,120417,,,A*4F
$GPGGA,110739.000,4139.3837,N,07350.8131,W,1,08,1.14,87.7,M,-34.1,M,,*66
$GPRMC,110739.000,A,4139.3837,N,07350.8131,W,40.15,161.53,120417,,,A*4A
$GPGGA,110740.000,4139.3728,N,07350.8083,W,1,08,1.14,87.6,M,-34.1,M,,*60
$GPRMC,110740.000,A,4139.3728,N,07350.8083,W,40.10,161.20,120417,,,A*4C
$GPGGA,110741.000,4139.3618,N,07350.8035,W,1,08,1.14,87.6,M,-34.1,M,,*6E
$GPRMC,110741.000,A,4139.3618,N,07350.8035,W,41.27,162.05,120417,,,A*43
$GPGGA,110742.000,4139.3508,N,07350.7990,W,1,08,1.14,87.8,M,-34.1,M,,*68
$GPRMC,110742.000,A,4139.3508,N,07350.7990,W,40.48,162.99,120417,,,A*46
$GPGGA,110743.000,4139.3403,N,07350.7946,W,1,08,1.14,87.9,M,-34.1,M,,*69
$GPRMC,110743.000,A,4139.3403,N,07350.7946,W,38.77,161.91,120417,,,A*4E
$GPGGA,110744.000,4139.3306,N,07350.7902,W,1,08,1.14,88.2,M,-34.1,M,,*68
$GPRMC,110744.000,A,4139.3306,N,07350.7902,W,35.14,159.93,120417,,,A*4A
$GPGGA,110745.000,4139.3220,N,07350.7857,W,1,08,1.14,88.5,M,-34.1,M,,*6A
$GPRMC,110745.000,A,4139.3220,N,07350.7857,W,31.96,157.30,120417,,,A*46
$GPGGA,110746.000,4139.3140,N,07350.7806,W,1,08,1.14,89.0,M,-34.1,M,,*6C
$GPRMC,110746.000,A,4139.3140,N,07350.7806,W,30.95,151.86,120417,,,A*4D
$GPGGA,110747.000,4139.3065,N,07350.7744,W,1,08,1.14,89.4,M,-34.1,M,,*66
$GPRMC,110747.000,A,4139.3065,N,07350.7744,W,31.11,144.46,120417,,,A*46
$GPGGA,110748.000,4139.2995,N,07350.7669,W,1,08,1.14,89.9,M,-34.1,M,,*6D
$GPRMC,110748.000,A,4139.2995,N,07350.7669,W,32.91,138.68,120417,,,A*4C
$GPGGA,110749.000,4139.2929,N,07350.7580,W,1,08,1.14,90.2,M,-34.1,M,,*6C
$GPRMC,110749.000,A,4139.2929,N,07350.7580,W,33.83,132.95,120417,,,A*44
$GPGGA,110750.000,4139.2866,N,07350.7480,W,1,08,1.14,90.6,M,-34.1,M,,*6B
$GPRMC,110750.000,A,4139.2866,N,07350.7480,W,34.75,127.89,120417,,,A*40
$GPGGA,110751.000,4139.2809,N,07350.7371,W,1,08,1.14,91.1,M,-34.1,M,,*6C
$GPRMC,110751.000,A,4139.2809,N,07350.7371,W,36.05,123.36,120417,,,A*44
$GPGGA,110752.000,4139.2756,N,07350.7253,W,1,08,1.14,91.8,M,-34.1,M,,*62
$GPRMC,110752.000,A,4139.2756,N,07350.7253,W,36.87,118.61,120417,,,A*43
$GPGGA,110753.000,4139.2709,N,07350.7128,W,1,08,1.14,92.7,M,-34.1,M,,*6A
$GPRMC,110753.000,A,4139.2709,N,07350.7128,W,37.66,115.34,120417,,,A*44
$GPGGA,110754.000,4139.2666,N,07350.7000,W,1,08,1.14,93.7,M,-34.1,M,,*6F
$GPRMC,110754.000,A,4139.2666,N,07350.7000,W,37.91,112.75,120417,,,A*4A
$GPGGA,110755.000,4139.2625,N,07350.6867,W,1,08,1.14,94.9,M,-34.1,M,,*68
$GPRMC,110755.000,A,4139.2625,N,07350.6867,W,38.83,110.80,120417,,,A*40
$GPGGA,110756.000,4139.2585,N,07350.6733,W,1,08,1.14,96.4,M,-34.1,M,,*63
$GPRMC,110756.000,A,4139.2585,N,07350.6733,W,38.61,111.12,120417,,,A*42
$GPGGA,110757.000,4139.2549,N,07350.6596,W,1,08,1.14,96.7,M,-34.1,M,,*6C
$GPRMC,110757.000,A,4139.2549,N,07350.6596,W,39.73,109.89,120417,,,A*47
$GPGGA,110758.000,4139.2509,N,07350.6456,W,1,08,1.14,97.7,M,-34.1,M,,*6B
$GPRMC,110758.000,A,4139.2509,N,07350.6456,W,40.57,111.72,120417,,,A*44
$GPGGA,110759.000,4139.2470,N,07350.6316,W,1,08,1.14,98.3,M,-34.1,M,,*6D
$GPRMC,110759.000,A,4139.2470,N,07350.6316,W,40.32,109.37,120417,,,A*42
$GPGGA,110800.000,4139.2434,N,07350.6176,W,1,08,1.14,98.7,M,-34.1,M,,*6E
$GPRMC,110800.000,A,4139.2434,N,07350.6176,W,39.69,109.11,120417,,,A*41
$GPGGA,110801.000,4139.2401,N,07350.6037,W,1,08,1.33,99.6,M,-34.1,M,,*68
$GPRMC,110801.000,A,4139.2401,N,07350.6037,W,40.26,105.79,120417,,,A*45
$GPGGA,110802.000,4139.2376,N,07350.5898,W,1,08,1.33,100.6,M,-34.1,M,,*53
$GPRMC,110802.000,A,4139.2376,N,07350.5898,W,38.26,101.91,120417,,,A*42
$GPGGA,110803.000,4139.2357,N,07350.5757,W,1,08,1.33,101.5,M,-34.1,M,,*5F
$GPRMC,110803.000,A,4139.2357,N,07350.5757,W,38.21,99.13,120417,,,A*71
$GPGGA,110804.000,4139.2342,N,07350.5615,W,1,08,1.14,102.1,M,-34.1,M,,*59
$GPRMC,110804.000,A,4139.2342,N,07350.5615,W,38.78,97.57,120417,,,A*77
$GPGGA,110805.000,4139.2328,N,07350.5471,W,1,08,1.33,102.4,M,-34.1,M,,*54
$GPRMC,110805.000,A,4139.2328,N,07350.5471,W,39.61,97.20,120417,,,A*73
$GPGGA,110806.000,4139.2314,N,07350.5322,W,1,08,1.33,102.7,M,-34.1,M,,*5A
$GPRMC,110806.000,A,4139.2314,N,07350.5322,W,40.39,97.18,120417,,,A*76
$GPGGA,110807.000,4139.2298,N,07350.5172,W,1,08,1.33,103.6,M,-34.1,M,,*59
$GPRMC,110807.000,A,4139.2298,N,07350.5172,W,40.69,98.02,120417,,,A*74
$GPGGA,110808.000,4139.2282,N,07350.5022,W,1,08,1.33,104.7,M,-34.1,M,,*5F
$GPRMC,110808.000,A,4139.2282,N,07350.5022,W,40.63,98.53,120417,,,A*7A
$GPGGA,110809.000,4139.2266,N,07350.4872,W,1,08,1.33,105.8,M,-34.1,M,,*56
$GPRMC,110809.000,A,4139.2266,N,07350.4872,W,40.61,98.29,120417,,,A*72
$GPGGA,110810.000,4139.2249,N,07350.4723,W,1,08,1.33,107.0,M,-34.1,M,,*52
$GPRMC,110810.000,A,4139.2249,N,07350.4723,W,40.64,98.19,120417,,,A*7A
$GPGGA,110811.000,4139.2233,N,07350.4573,W,1,08,1.33,108.1,M,-34.1,M,,*57
$GPRMC,110811.000,A,4139.2233,N,07350.4573,W,40.58,98.25,120417,,,A*71
$GPGGA,110812.000,4139.2218,N,07350.4425,W,1,08,1.14,109.2,M,-34.1,M,,*58
$GPRMC,110812.000,A,4139.2218,N,07350.4425,W,40.62,97.67,120417,,,A*79
$GPGGA,110813.000,4139.2203,N,07350.4278,W,1,08,1.14,109.9,M,-34.1,M,,*56
$GPRMC,110813.000,A,4139.2203,N,07350.4278,W,39.79,97.54,120417,,,A*78
$GPGGA,110814.000,4139.2189,N,07350.4133,W,1,08,1.14,110.4,M,-34.1,M,,*59
$GPRMC,110814.000,A,4139.2189,N,07350.4133,W,38.93,97.32,120417,,,A*77
$GPGGA,110815.000,4139.2174,N,07350.3990,W,1,08,1.14,110.9,M,-34.1,M,,*51
$GPRMC,110815.000,A,4139.2174,N,07350.3990,W,39.10,97.54,120417,,,A*78
$GPGGA,110816.000,4139.2161,N,07350.3846,W,1,08,1.33,110.4,M,-34.1,M,,*54
$GPRMC,110816.000,A,4139.2161,N,07350.3846,W,39.13,96.65,120417,,,A*75
$GPGGA,110817.000,4139.2148,N,07350.3701,W,1,08,1.33,109.9,M,-34.1,M,,*57
$GPRMC,110817.000,A,4139.2148,N,07350.3701,W,39.31,96.80,120417,,,A*78
$GPGGA,110818.000,4139.2130,N,07350.3556,W,1,08,1.33,109.1,M,-34.1,M,,*5F
$GPRMC,110818.000,A,4139.2130,N,07350.3556,W,39.26,99.84,120417,,,A*75
$GPGGA,110819.000,4139.2108,N,07350.3415,W,1,08,1.33,108.8,M,-34.1,M,,*5B
$GPRMC,110819.000,A,4139.2108,N,07350.3415,W,38.46,103.97,120417,,,A*4E
$GPGGA,110820.000,4139.2076,N,07350.3280,W,1,08,1.33,108.8,M,-34.1,M,,*53
$GPRMC,110820.000,A,4139.2076,N,07350.3280,W,38.01,110.46,120417,,,A*4B
$GPGGA,110821.000,4139.2033,N,07350.3150,W,1,08,1.33,108.9,M,-34.1,M,,*5C
$GPRMC,110821.000,A,4139.2033,N,07350.3150,W,38.47,116.32,120417,,,A*42
$GPGGA,110822.000,4139.1979,N,07350.3025,W,1,08,1.14,109.1,M,-34.1,M,,*54
$GPRMC,110822.000,A,4139.1979,N,07350.3025,W,39.21,121.91,120417,,,A*4A
$GPGGA,110823.000,4139.1918,N,07350.2904,W,1,08,1.33,109.3,M,-34.1,M,,*5E
$GPRMC,110823.000,A,4139.1918,N,07350.2904,W,39.69,126.02,120417,,,A*46
$GPGGA,110824.000,4139.1850,N,07350.2785,W,1,08,1.33,109.7,M,-34.1,M,,*57
$GPRMC,110824.000,A,4139.1850,N,07350.2785,W,40.36,127.41,120417,,,A*49
$GPGGA,110825.000,4139.1779,N,07350.2667,W,1,08,1.33,110.1,M,-34.1,M,,*51
$GPRMC,110825.000,A,4139.1779,N,07350.2667,W,40.75,127.57,120417,,,A*41
$GPGGA,110826.000,4139.1710,N,07350.2548,W,1,08,1.33,110.5,M,-34.1,M,,*57
$GPRMC,110826.000,A,4139.1710,N,07350.2548,W,40.37,127.86,120417,,,A*49
$GPGGA,110827.000,4139.1642,N,07350.2432,W,1,08,1.33,110.5,M,-34.1,M,,*5C
$GPRMC,110827.000,A,4139.1642,N,07350.2432,W,39.46,127.50,120417,,,A*41
$GPGGA,110828.000,4139.1575,N,07350.2318,W,1,08,1.33,110.9,M,-34.1,M,,*57
$GPRMC,110828.000,A,4139.1575,N,07350.2318,W,40.13,127.88,120417,,,A*4D
$GPGGA,110829.000,4139.1512,N,07350.2207,W,1,08,1.33,111.6,M,-34.1,M,,*56
$GPRMC,110829.000,A,4139.1512,N,07350.2207,W,37.01,126.59,120417,,,A*4C
$GPGGA,110830.000,4139.1455,N,07350.2096,W,1,08,1.13,112.2,M,-34.1,M,,*53
$GPRMC,110830.000,A,4139.1455,N,07350.2096,W,35.81,122.46,120417,,,A*4C
$GPGGA,110831.000,4139.1408,N,07350.1977,W,1,08,1.14,112.0,M,-34.1,M,,*5A
$GPRMC,110831.000,A,4139.1408,N,07350.1977,W,37.13,114.81,120417,,,A*47
$GPGGA,110832.000,4139.1369,N,07350.1846,W,1,08,1.14,110.8,M,-34.1,M,,*50
$GPRMC,110832.000,A,4139.1369,N,07350.1846,W,39.02,109.21,120417,,,A*4F
$GPGGA,110833.000,4139.1331,N,07350.1706,W,1,08,1.13,109.6,M,-34.1,M,,*56
$GPRMC,110833.000,A,4139.1331,N,07350.1706,W,41.03,109.69,120417,,,A*4A
$GPGGA,110834.000,4139.1293,N,07350.1552,W,1,08,1.14,108.1,M,-34.1,M,,*5A
$GPRMC,110834.000,A,4139.1293,N,07350.1552,W,44.88,108.14,120417,,,A*4A
$GPGGA,110835.000,4139.1255,N,07350.1393,W,1,08,1.33,105.9,M,-34.1,M,,*5A
$GPRMC,110835.000,A,4139.1255,N,07350.1393,W,46.38,107.67,120417,,,A*48
$GPGGA,110836.000,4139.1217,N,07350.1227,W,1,08,1.14,104.7,M,-34.1,M,,*5B
$GPRMC,110836.000,A,4139.1217,N,07350.1227,W,46.81,107.37,120417,,,A*44
$GPGGA,110837.000,4139.1178,N,07350.1060,W,1,08,1.14,104.0,M,-34.1,M,,*56
$GPRMC,110837.000,A,4139.1178,N,07350.1060,W,47.49,107.31,120417,,,A*4D
$GPGGA,110838.000,4139.1141,N,07350.0895,W,1,08,1.14,103.4,M,-34.1,M,,*53
$GPRMC,110838.000,A,4139.1141,N,07350.0895,W,47.24,106.90,120417,,,A*4A
$GPGGA,110839.000,4139.1107,N,07350.0733,W,1,08,1.14,101.8,M,-34.1,M,,*5D
$GPRMC,110839.000,A,4139.1107,N,07350.0733,W,47.18,106.61,120417,,,A*4B
$GPGGA,110840.000,4139.1071,N,07350.0565,W,1,08,1.33,101.7,M,-34.1,M,,*58
$GPRMC,110840.000,A,4139.1071,N,07350.0565,W,47.36,106.23,120417,,,A*4E
$GPGGA,110841.000,4139.1034,N,07350.0396,W,1,08,1.33,102.1,M,-34.1,M,,*57
$GPRMC,110841.000,A,4139.1034,N,07350.0396,W,47.87,107.20,120417,,,A*4C
$GPGGA,110842.000,4139.0994,N,07350.0227,W,1,08,1.14,102.9,M,-34.1,M,,*50
$GPRMC,110842.000,A,4139.0994,N,07350.0227,W,47.86,107.68,120417,,,A*4B
$GPGGA,110843.000,4139.0953,N,07350.0061,W,1,07,1.38,104.4,M,-34.1,M,,*50
$GPRMC,110843.000,A,4139.0953,N,07350.0061,W,47.74,109.42,120417,,,A*4A
$GPGGA,110844.000,4139.0908,N,07349.9901,W,1,08,1.33,106.5,M,-34.1,M,,*50
$GPRMC,110844.000,A,4139.0908,N,07349.9901,W,45.12,111.84,120417,,,A*4C
$GPGGA,110845.000,4139.0864,N,07349.9749,W,1,08,1.14,108.4,M,-34.1,M,,*52
$GPRMC,110845.000,A,4139.0864,N,07349.9749,W,43.27,110.44,120417,,,A*49
$GPGGA,110846.000,4139.0816,N,07349.9603,W,1,08,1.14,110.0,M,-34.1,M,,*56
$GPRMC,110846.000,A,4139.0816,N,07349.9603,W,42.96,115.63,120417,,,A*4B
$GPGGA,110847.000,4139.0765,N,07349.9460,W,1,08,1.14,111.0,M,-34.1,M,,*5A
$GPRMC,110847.000,A,4139.0765,N,07349.9460,W,43.51,116.70,120417,,,A*4D
$GPGGA,110848.000,4139.0709,N,07349.9316,W,1,08,1.33,111.5,M,-34.1,M,,*59
$GPRMC,110848.000,A,4139.0709,N,07349.9316,W,43.92,117.73,120417,,,A*43
$GPGGA,110849.000,4139.0651,N,07349.9171,W,1,08,1.14,112.1,M,-34.1,M,,*55
$GPRMC,110849.000,A,4139.0651,N,07349.9171,W,44.79,117.27,120417,,,A*4E
$GPGGA,110850.000,4139.0594,N,07349.9024,W,1,08,1.14,112.8,M,-34.1,M,,*5F
$GPRMC,110850.000,A,4139.0594,N,07349.9024,W,44.75,117.10,120417,,,A*45
$GPGGA,110851.000,4139.0538,N,07349.8877,W,1,08,1.33,113.3,M,-34.1,M,,*58
$GPRMC,110851.000,A,4139.0538,N,07349.8877,W,44.21,116.11,120417,,,A*4C
$GPGGA,110852.000,4139.0488,N,07349.8732,W,1,08,1.14,113.5,M,-34.1,M,,*5C
$GPRMC,110852.000,A,4139.0488,N,07349.8732,W,43.50,114.61,120417,,,A*4F
$GPGGA,110853.000,4139.0438,N,07349.8587,W,1,08,1.33,114.4,M,-34.1,M,,*59
$GPRMC,110853.000,A,4139.0438,N,07349.8587,W,42.79,113.71,120417,,,A*45
$GPGGA,110854.000,4139.0393,N,07349.8443,W,1,08,1.33,115.5,M,-34.1,M,,*51
$GPRMC,110854.000,A,4139.0393,N,07349.8443,W,41.18,110.95,120417,,,A*40
$GPGGA,110855.000,4139.0356,N,07349.8300,W,1,08,1.14,116.5,M,-34.1,M,,*5F
$GPRMC,110855.000,A,4139.0356,N,07349.8300,W,40.64,107.32,120417,,,A*49
$GPGGA,110856.000,4139.0325,N,07349.8155,W,1,08,1.14,116.9,M,-34.1,M,,*56
$GPRMC,110856.000,A,4139.0325,N,07349.8155,W,40.68,102.41,120417,,,A*41
$GPGGA,110857.000,4139.0303,N,07349.8005,W,1,08,1.33,117.1,M,-34.1,M,,*5B
$GPRMC,110857.000,A,4139.0303,N,07349.8005,W,40.23,100.33,120417,,,A*48
$GPGGA,110858.000,4139.0282,N,07349.7850,W,1,08,1.33,116.8,M,-34.1,M,,*53
$GPRMC,110858.000,A,4139.0282,N,07349.7850,W,42.90,100.09,120417,,,A*4B
$GPGGA,110859.000,4139.0259,N,07349.7692,W,1,08,1.14,116.6,M,-34.1,M,,*5F
$GPRMC,110859.000,A,4139.0259,N,07349.7692,W,43.88,102.34,120417,,,A*48
$GPGGA,110900.000,4139.0231,N,07349.7532,W,1,08,1.14,117.0,M,-34.1,M,,*52
$GPRMC,110900.000,A,4139.0231,N,07349.7532,W,44.38,104.00,120417,,,A*4F
$GPGGA,110901.000,4139.0200,N,07349.7372,W,1,08,1.14,117.7,M,-34.1,M,,*54
$GPRMC,110901.000,A,4139.0200,N,07349.7372,W,44.37,105.00,120417,,,A*40
$GPGGA,110902.000,4139.0168,N,07349.7214,W,1,08,1.14,119.1,M,-34.1,M,,*53
$GPRMC,110902.000,A,4139.0168,N,07349.7214,W,43.86,105.41,120417,,,A*47
$GPGGA,110903.000,4139.0136,N,07349.7059,W,1,08,1.14,121.1,M,-34.1,M,,*59
$GPRMC,110903.000,A,4139.0136,N,07349.7059,W,42.71,105.58,120417,,,A*47
$GPGGA,110904.000,4139.0104,N,07349.6909,W,1,08,1.33,123.3,M,-34.1,M,,*57
$GPRMC,110904.000,A,4139.0104,N,07349.6909,W,41.36,105.89,120417,,,A*40
$GPGGA,110905.000,4139.0072,N,07349.6763,W,1,08,1.33,125.2,M,-34.1,M,,*53
$GPRMC,110905.000,A,4139.0072,N,07349.6763,W,40.66,106.65,120417,,,A*46
$GPGGA,110906.000,4139.0038,N,07349.6620,W,1,08,1.33,126.8,M,-34.1,M,,*51
$GPRMC,110906.000,A,4139.0038,N,07349.6620,W,40.65,108.48,120417,,,A*4F
$GPGGA,110907.000,4138.9998,N,07349.6478,W,1,08,1.14,127.8,M,-34.1,M,,*50
$GPRMC,110907.000,A,4138.9998,N,07349.6478,W,41.09,112.03,120417,,,A*45
$GPGGA,110908.000,4138.9951,N,07349.6338,W,1,08,1.33,128.2,M,-34.1,M,,*59
$GPRMC,110908.000,A,4138.9951,N,07349.6338,W,41.66,115.94,120417,,,A*4C
$GPGGA,110909.000,4138.9898,N,07349.6200,W,1,08,1.33,128.4,M,-34.1,M,,*50
$GPRMC,110909.000,A,4138.9898,N,07349.6200,W,42.03,118.21,120417,,,A*40
$GPGGA,110910.000,4138.9842,N,07349.6063,W,1,08,1.14,128.4,M,-34.1,M,,*5D
$GPRMC,110910.000,A,4138.9842,N,07349.6063,W,42.28,118.93,120417,,,A*48
$GPGGA,110911.000,4138.9785,N,07349.5926,W,1,08,1.33,128.4,M,-34.1,M,,*56
$GPRMC,110911.000,A,4138.9785,N,07349.5926,W,42.48,119.00,120417,,,A*4B
$GPGGA,110912.000,4138.9727,N,07349.5789,W,1,08,1.14,128.2,M,-34.1,M,,*55
$GPRMC,110912.000,A,4138.9727,N,07349.5789,W,42.47,119.99,120417,,,A*44
$GPGGA,110913.000,4138.9665,N,07349.5655,W,1,08,1.33,128.0,M,-34.1,M,,*54
$GPRMC,110913.000,A,4138.9665,N,07349.5655,W,42.45,122.53,120417,,,A*4E
$GPGGA,110914.000,4138.9594,N,07349.5530,W,1,08,1.33,127.7,M,-34.1,M,,*56
$GPRMC,110914.000,A,4138.9594,N,07349.5530,W,42.89,130.44,120417,,,A*41
$GPGGA,110915.000,4138.9514,N,07349.5415,W,1,08,1.13,127.7,M,-34.1,M,,*5B
$GPRMC,110915.000,A,4138.9514,N,07349.5415,W,41.91,134.87,120417,,,A*4F
$GPGGA,110916.000,4138.9428,N,07349.5305,W,1,08,1.13,127.8,M,-34.1,M,,*5F
$GPRMC,110916.000,A,4138.9428,N,07349.5305,W,43.22,136.84,120417,,,A*4F
$GPGGA,110917.000,4138.9340,N,07349.5196,W,1,08,1.13,128.0,M,-34.1,M,,*58
$GPRMC,110917.000,A,4138.9340,N,07349.5196,W,42.77,136.85,120417,,,A*4F
$GPGGA,110918.000,4138.9252,N,07349.5089,W,1,08,1.13,128.4,M,-34.1,M,,*5E
$GPRMC,110918.000,A,4138.9252,N,07349.5089,W,43.03,137.53,120417,,,A*45
$GPGGA,110919.000,4138.9165,N,07349.4982,W,1,08,1.13,128.9,M,-34.1,M,,*56
$GPRMC,110919.000,A,4138.9165,N,07349.4982,W,42.62,137.22,120417,,,A*40
$GPGGA,110920.000,4138.9080,N,07349.4875,W,1,08,1.33,129.9,M,-34.1,M,,*5C
$GPRMC,110920.000,A,4138.9080,N,07349.4875,W,41.02,135.71,120417,,,A*48
$GPGGA,110921.000,4138.9001,N,07349.4769,W,1,08,1.33,130.5,M,-34.1,M,,*52
$GPRMC,110921.000,A,4138.9001,N,07349.4769,W,39.88,133.20,120417,,,A*4D
$GPGGA,110922.000,4138.8928,N,07349.4658,W,1,08,1.34,131.2,M,-34.1,M,,*50
$GPRMC,110922.000,A,4138.8928,N,07349.4658,W,39.85,128.96,120417,,,A*44
$GPGGA,110923.000,4138.8860,N,07349.4539,W,1,08,1.14,131.4,M,-34.1,M,,*5C
$GPRMC,110923.000,A,4138.8860,N,07349.4539,W,39.68,124.28,120417,,,A*46
$GPGGA,110924.000,4138.8799,N,07349.4410,W,1,08,1.14,131.9,M,-34.1,M,,*55
$GPRMC,110924.000,A,4138.8799,N,07349.4410,W,39.25,120.52,120417,,,A*42
$GPGGA,110925.000,4138.8743,N,07349.4276,W,1,08,1.33,131.6,M,-34.1,M,,*5F
$GPRMC,110925.000,A,4138.8743,N,07349.4276,W,42.13,117.97,120417,,,A*46
$GPGGA,110926.000,4138.8689,N,07349.4138,W,1,08,1.14,130.3,M,-34.1,M,,*53
$GPRMC,110926.000,A,4138.8689,N,07349.4138,W,42.61,117.43,120417,,,A*47
$GPGGA,110927.000,4138.8635,N,07349.3997,W,1,08,1.34,129.5,M,-34.1,M,,*53
$GPRMC,110927.000,A,4138.8635,N,07349.3997,W,43.06,117.32,120417,,,A*4D
$GPGGA,110928.000,4138.8579,N,07349.3854,W,1,08,1.34,128.6,M,-34.1,M,,*5B
$GPRMC,110928.000,A,4138.8579,N,07349.3854,W,43.55,117.87,120417,,,A*4F
$GPGGA,110929.000,4138.8522,N,07349.3710,W,1,08,1.34,127.6,M,-34.1,M,,*54
$GPRMC,110929.000,A,4138.8522,N,07349.3710,W,43.99,118.14,120417,,,A*4A
$GPGGA,110930.000,4138.8464,N,07349.3565,W,1,08,1.33,126.6,M,-34.1,M,,*59
$GPRMC,110930.000,A,4138.8464,N,07349.3565,W,44.49,118.28,120417,,,A*44
$GPGGA,110931.000,4138.8404,N,07349.3419,W,1,08,1.34,125.6,M,-34.1,M,,*50
$GPRMC,110931.000,A,4138.8404,N,07349.3419,W,44.54,118.98,120417,,,A*4E
$GPGGA,110932.000,4138.8343,N,07349.3271,W,1,08,1.14,124.7,M,-34.1,M,,*5D
$GPRMC,110932.000,A,4138.8343,N,07349.3271,W,45.91,118.90,120417,,,A*41
$GPGGA,110933.000,4138.8280,N,07349.3121,W,1,08,1.14,124.0,M,-34.1,M,,*53
$GPRMC,110933.000,A,4138.8280,N,07349.3121,W,46.59,119.03,120417,,,A*44
$GPGGA,110934.000,4138.8218,N,07349.2969,W,1,08,1.34,123.4,M,-34.1,M,,*51
$GPRMC,110934.000,A,4138.8218,N,07349.2969,W,46.67,118.80,120417,,,A*40
$GPGGA,110935.000,4138.8155,N,07349.2817,W,1,08,1.34,123.0,M,-34.1,M,,*56
$GPRMC,110935.000,A,4138.8155,N,07349.2817,W,46.61,118.58,120417,,,A*40
$GPGGA,110936.000,4138.8094,N,07349.2666,W,1,08,1.34,122.6,M,-34.1,M,,*56
$GPRMC,110936.000,A,4138.8094,N,07349.2666,W,47.02,118.75,120417,,,A*4C
$GPGGA,110937.000,4138.8032,N,07349.2517,W,1,08,1.34,122.4,M,-34.1,M,,*5C
$GPRMC,110937.000,A,4138.8032,N,07349.2517,W,45.44,119.16,120417,,,A*40
$GPGGA,110938.000,4138.7969,N,07349.2371,W,1,08,1.34,122.3,M,-34.1,M,,*5A
$GPRMC,110938.000,A,4138.7969,N,07349.2371,W,44.92,121.17,120417,,,A*41
$GPGGA,110939.000,4138.7903,N,07349.2234,W,1,08,1.34,121.6,M,-34.1,M,,*51
$GPRMC,110939.000,A,4138.7903,N,07349.2234,W,44.09,125.25,120417,,,A*4B
$GPGGA,110940.000,4138.7828,N,07349.2104,W,1,08,1.34,121.3,M,-34.1,M,,*52
$GPRMC,110940.000,A,4138.7828,N,07349.2104,W,44.07,128.92,120417,,,A*42
$GPGGA,110941.000,4138.7748,N,07349.1980,W,1,08,1.34,120.9,M,-34.1,M,,*56
$GPRMC,110941.000,A,4138.7748,N,07349.1980,W,44.07,131.91,120417,,,A*46
$GPGGA,110942.000,4138.7669,N,07349.1866,W,1,08,1.34,120.2,M,-34.1,M,,*55
$GPRMC,110942.000,A,4138.7669,N,07349.1866,W,43.38,133.89,120417,,,A*4E
$GPGGA,110943.000,4138.7589,N,07349.1761,W,1,08,1.34,119.5,M,-34.1,M,,*5C
$GPRMC,110943.000,A,4138.7589,N,07349.1761,W,39.52,136.13,120417,,,A*4D
$GPGGA,110944.000,4138.7510,N,07349.1661,W,1,08,1.34,118.8,M,-34.1,M,,*56
$GPRMC,110944.000,A,4138.7510,N,07349.1661,W,39.25,136.31,120417,,,A*4B
$GPGGA,110945.000,4138.7429,N,07349.1560,W,1,08,1.34,118.1,M,-34.1,M,,*57
$GPRMC,110945.000,A,4138.7429,N,07349.1560,W,39.96,137.09,120417,,,A*41
$GPGGA,110946.000,4138.7347,N,07349.1459,W,1,08,1.34,117.0,M,-34.1,M,,*5E
$GPRMC,110946.000,A,4138.7347,N,07349.1459,W,40.48,136.57,120417,,,A*41
$GPGGA,110947.000,4138.7267,N,07349.1354,W,1,08,1.34,115.6,M,-34.1,M,,*52
$GPRMC,110947.000,A,4138.7267,N,07349.1354,W,40.43,133.80,120417,,,A*4D
$GPGGA,110948.000,4138.7188,N,07349.1243,W,1,08,1.34,114.3,M,-34.1,M,,*5C
$GPRMC,110948.000,A,4138.7188,N,07349.1243,W,41.46,132.18,120417,,,A*43
$GPGGA,110949.000,4138.7109,N,07349.1125,W,1,07,1.44,113.3,M,-34.1,M,,*58
$GPRMC,110949.000,A,4138.7109,N,07349.1125,W,42.25,131.02,120417,,,A*46
$GPGGA,110950.000,4138.7032,N,07349.1004,W,1,08,1.34,111.8,M,-34.1,M,,*5A
$GPRMC,110950.000,A,4138.7032,N,07349.1004,W,43.36,129.63,120417,,,A*48
$GPGGA,110951.000,4138.6957,N,07349.0879,W,1,08,1.34,110.2,M,-34.1,M,,*58
$GPRMC,110951.000,A,4138.6957,N,07349.0879,W,43.31,127.64,120417,,,A*4F
$GPGGA,110952.000,4138.6886,N,07349.0752,W,1,08,1.34,108.5,M,-34.1,M,,*5E
$GPRMC,110952.000,A,4138.6886,N,07349.0752,W,43.02,126.52,120417,,,A*43
$GPGGA,110953.000,4138.6815,N,07349.0620,W,1,08,1.34,107.4,M,-34.1,M,,*5F
$GPRMC,110953.000,A,4138.6815,N,07349.0620,W,43.65,123.77,120417,,,A*4F
$GPGGA,110954.000,4138.6752,N,07349.0483,W,1,08,1.34,105.7,M,-34.1,M,,*5E
$GPRMC,110954.000,A,4138.6752,N,07349.0483,W,43.66,120.17,120417,,,A*49
$GPGGA,110955.000,4138.6693,N,07349.0342,W,1,08,1.34,103.7,M,-34.1,M,,*5F
$GPRMC,110955.000,A,4138.6693,N,07349.0342,W,44.44,118.07,120417,,,A*43
$GPGGA,110956.000,4138.6638,N,07349.0195,W,1,08,1.13,102.2,M,-34.1,M,,*54
$GPRMC,110956.000,A,4138.6638,N,07349.0195,W,44.48,115.92,120417,,,A*44
$GPGGA,110957.000,4138.6585,N,07349.0047,W,1,08,1.34,100.2,M,-34.1,M,,*59
$GPRMC,110957.000,A,4138.6585,N,07349.0047,W,44.93,115.60,120417,,,A*45
$GPGGA,110958.000,4138.6533,N,07348.9897,W,1,08,1.34,98.5,M,-34.1,M,,*61
$GPRMC,110958.000,A,4138.6533,N,07348.9897,W,45.23,114.99,120417,,,A*47
$GPGGA,110959.000,4138.6483,N,07348.9747,W,1,08,1.13,96.6,M,-34.1,M,,*60
$GPRMC,110959.000,A,4138.6483,N,07348.9747,W,45.51,114.57,120417,,,A*49
$GPGGA,111000.000,4138.6431,N,07348.9593,W,1,08,1.13,95.2,M,-34.1,M,,*61
$GPRMC,111000.000,A,4138.6431,N,07348.9593,W,45.75,114.34,120417,,,A*4C
$GPGGA,111001.000,4138.6380,N,07348.9438,W,1,08,1.14,94.2,M,-34.1,M,,*6B
$GPRMC,111001.000,A,4138.6380,N,07348.9438,W,45.47,113.68,120417,,,A*4F
$GPGGA,111002.000,4138.6333,N,07348.9283,W,1,08,1.14,93.5,M,-34.1,M,,*66
$GPRMC,111002.000,A,4138.6333,N,07348.9283,W,45.74,111.04,120417,,,A*4A
$GPGGA,111003.000,4138.6293,N,07348.9126,W,1,08,1.34,93.0,M,-34.1,M,,*67
$GPRMC,111003.000,A,4138.6293,N,07348.9126,W,44.49,107.12,120417,,,A*43
$GPGGA,111004.000,4138.6262,N,07348.8968,W,1,08,1.34,92.8,M,-34.1,M,,*64
$GPRMC,111004.000,A,4138.6262,N,07348.8968,W,43.76,103.63,120417,,,A*40
$GPGGA,111005.000,4138.6239,N,07348.8811,W,1,08,1.34,92.9,M,-34.1,M,,*65
$GPRMC,111005.000,A,4138.6239,N,07348.8811,W,42.91,99.99,120417,,,A*7F
$GPGGA,111006.000,4138.6221,N,07348.8653,W,1,08,1.34,92.9,M,-34.1,M,,*67
$GPRMC,111006.000,A,4138.6221,N,07348.8653,W,42.89,97.51,120417,,,A*7E
$GPGGA,111007.000,4138.6207,N,07348.8494,W,1,08,1.34,93.1,M,-34.1,M,,*62
$GPRMC,111007.000,A,4138.6207,N,07348.8494,W,43.22,96.60,120417,,,A*71
$GPGGA,111008.000,4138.6195,N,07348.8333,W,1,08,1.34,93.3,M,-34.1,M,,*6D
$GPRMC,111008.000,A,4138.6195,N,07348.8333,W,43.77,96.12,120417,,,A*79
$GPGGA,111009.000,4138.6183,N,07348.8171,W,1,08,1.34,93.3,M,-34.1,M,,*6F
$GPRMC,111009.000,A,4138.6183,N,07348.8171,W,43.84,95.80,120417,,,A*7F
$GPGGA,111010.000,4138.6171,N,07348.8008,W,1,08,1.13,93.0,M,-34.1,M,,*63
$GPRMC,111010.000,A,4138.6171,N,07348.8008,W,43.70,96.95,120417,,,A*79
$GPGGA,111011.000,4138.6161,N,07348.7846,W,1,08,1.13,92.5,M,-34.1,M,,*6A
$GPRMC,111011.000,A,4138.6161,N,07348.7846,W,43.51,93.28,120417,,,A*74
$GPGGA,111012.000,4138.6158,N,07348.7685,W,1,08,1.13,92.0,M,-34.1,M,,*67
$GPRMC,111012.000,A,4138.6158,N,07348.7685,W,43.78,89.69,120417,,,A*79
$GPGGA,111013.000,4138.6164,N,07348.7526,W,1,07,1.22,91.8,M,-34.1,M,,*65
$GPRMC,111013.000,A,4138.6164,N,07348.7526,W,42.60,85.66,120417,,,A*76
$GPGGA,111014.000,4138.6178,N,07348.7368,W,1,08,1.14,91.9,M,-34.1,M,,*68
$GPRMC,111014.000,A,4138.6178,N,07348.7368,W,42.63,82.38,120417,,,A*7F
$GPGGA,111015.000,4138.6200,N,07348.7213,W,1,08,1.14,91.8,M,-34.1,M,,*69
$GPRMC,111015.000,A,4138.6200,N,07348.7213,W,42.61,78.16,120417,,,A*74
$GPGGA,111016.000,4138.6230,N,07348.7059,W,1,08,1.13,91.9,M,-34.1,M,,*63
$GPRMC,111016.000,A,4138.6230,N,07348.7059,W,42.67,74.14,120417,,,A*70
$GPGGA,111017.000,4138.6267,N,07348.6909,W,1,08,1.14,92.2,M,-34.1,M,,*62
$GPRMC,111017.000,A,4138.6267,N,07348.6909,W,42.35,70.47,120417,,,A*7B
$GPGGA,111018.000,4138.6309,N,07348.6763,W,1,08,1.34,92.7,M,-34.1,M,,*61
$GPRMC,111018.000,A,4138.6309,N,07348.6763,W,42.23,68.13,120417,,,A*70
$GPGGA,111019.000,4138.6354,N,07348.6623,W,1,08,1.34,93.2,M,-34.1,M,,*69
$GPRMC,111019.000,A,4138.6354,N,07348.6623,W,40.68,67.37,120417,,,A*78
$GPGGA,111020.000,4138.6400,N,07348.6483,W,1,08,1.34,93.5,M,-34.1,M,,*6A
$GPRMC,111020.000,A,4138.6400,N,07348.6483,W,41.02,67.33,120417,,,A*75
$GPGGA,111021.000,4138.6446,N,07348.6342,W,1,08,1.34,93.6,M,-34.1,M,,*60
$GPRMC,111021.000,A,4138.6446,N,07348.6342,W,41.07,67.25,120417,,,A*7E
$GPGGA,111022.000,4138.6490,N,07348.6202,W,1,08,1.34,93.7,M,-34.1,M,,*6C
$GPRMC,111022.000,A,4138.6490,N,07348.6202,W,40.50,68.90,120417,,,A*71
$GPGGA,111023.000,4138.6527,N,07348.6061,W,1,08,1.14,93.8,M,-34.1,M,,*6A
$GPRMC,111023.000,A,4138.6527,N,07348.6061,W,40.42,72.73,120417,,,A*7F
$GPGGA,111024.000,4138.6556,N,07348.5917,W,1,07,1.22,94.1,M,-34.1,M,,*64
$GPRMC,111024.000,A,4138.6556,N,07348.5917,W,39.92,77.70,120417,,,A*70
$GPGGA,111025.000,4138.6577,N,07348.5771,W,1,08,1.34,94.4,M,-34.1,M,,*65
$GPRMC,111025.000,A,4138.6577,N,07348.5771,W,40.28,81.73,120417,,,A*79
$GPGGA,111026.000,4138.6589,N,07348.5623,W,1,08,1.34,94.9,M,-34.1,M,,*6C
$GPRMC,111026.000,A,4138.6589,N,07348.5623,W,40.48,85.76,120417,,,A*7A
$GPGGA,111027.000,4138.6595,N,07348.5472,W,1,08,1.34,95.6,M,-34.1,M,,*68
$GPRMC,111027.000,A,4138.6595,N,07348.5472,W,40.53,88.91,120417,,,A*7E
$GPGGA,111028.000,4138.6596,N,07348.5322,W,1,08,1.14,96.3,M,-34.1,M,,*62
$GPRMC,111028.000,A,4138.6596,N,07348.5322,W,40.58,89.95,120417,,,A*7E
$GPGGA,111029.000,4138.6599,N,07348.5172,W,1,08,1.13,97.0,M,-34.1,M,,*6E
$GPRMC,111029.000,A,4138.6599,N,07348.5172,W,40.64,87.39,120417,,,A*70
$GPGGA,111030.000,4138.6604,N,07348.5020,W,1,08,1.13,97.7,M,-34.1,M,,*60
$GPRMC,111030.000,A,4138.6604,N,07348.5020,W,41.02,88.46,120417,,,A*7F
$GPGGA,111031.000,4138.6603,N,07348.4867,W,1,08,1.13,98.4,M,-34.1,M,,*60
$GPRMC,111031.000,A,4138.6603,N,07348.4867,W,41.87,92.16,120417,,,A*70
$GPGGA,111032.000,4138.6602,N,07348.4711,W,1,08,1.13,99.0,M,-34.1,M,,*69
$GPRMC,111032.000,A,4138.6602,N,07348.4711,W,42.27,90.23,120417,,,A*71
$GPGGA,111033.000,4138.6604,N,07348.4553,W,1,08,1.13,99.7,M,-34.1,M,,*6D
$GPRMC,111033.000,A,4138.6604,N,07348.4553,W,42.94,88.63,120417,,,A*77
$GPGGA,111034.000,4138.6606,N,07348.4392,W,1,07,1.22,100.3,M,-34.1,M,,*5B
$GPRMC,111034.000,A,4138.6606,N,07348.4392,W,44.17,89.55,120417,,,A*70
$GPGGA,111035.000,4138.6614,N,07348.4227,W,1,07,1.22,100.5,M,-34.1,M,,*50
$GPRMC,111035.000,A,4138.6614,N,07348.4227,W,45.14,85.89,120417,,,A*72
$GPGGA,111036.000,4138.6626,N,07348.4058,W,1,07,1.22,100.3,M,-34.1,M,,*5E
$GPRMC,111036.000,A,4138.6626,N,07348.4058,W,45.73,83.81,120417,,,A*75
$GPGGA,111037.000,4138.6641,N,07348.3888,W,1,07,1.22,99.9,M,-34.1,M,,*67
$GPRMC,111037.000,A,4138.6641,N,07348.3888,W,46.43,81.76,120417,,,A*7D
$GPGGA,111038.000,4138.6657,N,07348.3714,W,1,07,1.22,99.0,M,-34.1,M,,*6C
$GPRMC,111038.000,A,4138.6657,N,07348.3714,W,47.48,81.84,120417,,,A*78
$GPGGA,111039.000,4138.6676,N,07348.3537,W,1,07,1.22,98.2,M,-34.1,M,,*6E
$GPRMC,111039.000,A,4138.6676,N,07348.3537,W,48.70,81.10,120417,,,A*70
$GPGGA,111040.000,4138.6701,N,07348.3357,W,1,07,1.22,97.3,M,-34.1,M,,*6F
$GPRMC,111040.000,A,4138.6701,N,07348.3357,W,49.58,80.69,120417,,,A*7B
$GPGGA,111041.000,4138.6723,N,07348.3175,W,1,08,1.13,96.2,M,-34.1,M,,*61
$GPRMC,111041.000,A,4138.6723,N,07348.3175,W,49.83,80.82,120417,,,A*7B
$GPGGA,111042.000,4138.6745,N,07348.2991,W,1,08,1.13,95.0,M,-34.1,M,,*60
$GPRMC,111042.000,A,4138.6745,N,07348.2991,W,50.19,80.84,120417,,,A*76
$GPGGA,111043.000,4138.6768,N,07348.2805,W,1,08,1.13,94.0,M,-34.1,M,,*63
$GPRMC,111043.000,A,4138.6768,N,07348.2805,W,50.75,80.77,120417,,,A*72
$GPGGA,111044.000,4138.6791,N,07348.2619,W,1,07,1.22,93.4,M,-34.1,M,,*6F
$GPRMC,111044.000,A,4138.6791,N,07348.2619,W,51.10,80.79,120417,,,A*7C
$GPGGA,111045.000,4138.6815,N,07348.2431,W,1,07,1.22,93.1,M,-34.1,M,,*60
$GPRMC,111045.000,A,4138.6815,N,07348.2431,W,51.13,80.38,120417,,,A*70
$GPGGA,111046.000,4138.6840,N,07348.2245,W,1,07,1.22,93.0,M,-34.1,M,,*67
$GPRMC,111046.000,A,4138.6840,N,07348.2245,W,50.49,79.88,120417,,,A*75
$GPGGA,111047.000,4138.6863,N,07348.2061,W,1,08,1.13,93.0,M,-34.1,M,,*6E
$GPRMC,111047.000,A,4138.6863,N,07348.2061,W,49.65,81.33,120417,,,A*70
$GPGGA,111048.000,4138.6883,N,07348.1879,W,1,08,1.13,93.0,M,-34.1,M,,*6D
$GPRMC,111048.000,A,4138.6883,N,07348.1879,W,49.19,81.59,120417,,,A*74
$GPGGA,111049.000,4138.6902,N,07348.1699,W,1,09,1.19,92.7,M,-34.1,M,,*69
$GPRMC,111049.000,A,4138.6902,N,07348.1699,W,48.97,81.86,120417,,,A*78
$GPGGA,111050.000,4138.6919,N,07348.1519,W,1,09,1.07,92.7,M,-34.1,M,,*6F
$GPRMC,111050.000,A,4138.6919,N,07348.1519,W,48.74,82.54,120417,,,A*70
$GPGGA,111051.000,4138.6935,N,07348.1341,W,1,09,1.07,92.7,M,-34.1,M,,*6B
$GPRMC,111051.000,A,4138.6935,N,07348.1341,W,48.46,83.65,120417,,,A*76
$GPGGA,111052.000,4138.6947,N,07348.1164,W,1,09,1.07,92.9,M,-34.1,M,,*66
$GPRMC,111052.000,A,4138.6947,N,07348.1164,W,47.58,84.63,120417,,,A*74
$GPGGA,111053.000,4138.6957,N,07348.0988,W,1,09,1.07,93.2,M,-34.1,M,,*67
$GPRMC,111053.000,A,4138.6957,N,07348.0988,W,47.38,86.55,120417,,,A*7E
$GPGGA,111054.000,4138.6962,N,07348.0812,W,1,09,1.19,93.4,M,-34.1,M,,*6D
$GPRMC,111054.000,A,4138.6962,N,07348.0812,W,47.55,88.77,120417,,,A*78
$GPGGA,111055.000,4138.6961,N,07348.0634,W,1,09,1.07,93.5,M,-34.1,M,,*6B
$GPRMC,111055.000,A,4138.6961,N,07348.0634,W,47.90,91.52,120417,,,A*76
$GPGGA,111056.000,4138.6952,N,07348.0455,W,1,09,1.19,93.7,M,-34.1,M,,*60
$GPRMC,111056.000,A,4138.6952,N,07348.0455,W,48.67,95.49,120417,,,A*79
$GPGGA,111057.000,4138.6935,N,07348.0274,W,1,09,1.19,93.8,M,-34.1,M,,*6A
$GPRMC,111057.000,A,4138.6935,N,07348.0274,W,49.42,97.87,120417,,,A*7A
$GPGGA,111058.000,4138.6913,N,07348.0091,W,1,09,1.19,93.7,M,-34.1,M,,*67
$GPRMC,111058.000,A,4138.6913,N,07348.0091,W,50.20,100.29,120417,,,A*4F
$GPGGA,111059.000,4138.6887,N,07347.9907,W,1,09,1.19,93.6,M,-34.1,M,,*6B
$GPRMC,111059.000,A,4138.6887,N,07347.9907,W,50.84,100.55,120417,,,A*47
$GPGGA,111100.000,4138.6861,N,07347.9721,W,1,09,1.19,93.6,M,-34.1,M,,*64
$GPRMC,111100.000,A,4138.6861,N,07347.9721,W,50.78,100.54,120417,,,A*4A
$GPGGA,111101.000,4138.6835,N,07347.9537,W,1,09,1.19,93.6,M,-34.1,M,,*61
$GPRMC,111101.000,A,4138.6835,N,07347.9537,W,51.15,100.19,120417,,,A*4C
$GPGGA,111102.000,4138.6810,N,07347.9354,W,1,09,1.19,93.7,M,-34.1,M,,*67
$GPRMC,111102.000,A,4138.6810,N,07347.9354,W,51.28,100.22,120417,,,A*4D
$GPGGA,111103.000,4138.6784,N,07347.9173,W,1,09,1.19,93.6,M,-34.1,M,,*62
$GPRMC,111103.000,A,4138.6784,N,07347.9173,W,49.71,100.53,120417,,,A*4A
$GPGGA,111104.000,4138.6758,N,07347.8992,W,1,09,1.19,93.7,M,-34.1,M,,*63
$GPRMC,111104.000,A,4138.6758,N,07347.8992,W,49.67,100.79,120417,,,A*45
$GPGGA,111105.000,4138.6731,N,07347.8811,W,1,09,1.19,93.7,M,-34.1,M,,*67
$GPRMC,111105.000,A,4138.6731,N,07347.8811,W,49.51,100.97,120417,,,A*44
$GPGGA,111106.000,4138.6704,N,07347.8632,W,1,09,1.19,93.7,M,-34.1,M,,*6D
$GPRMC,111106.000,A,4138.6704,N,07347.8632,W,49.04,101.53,120417,,,A*47
$GPGGA,111107.000,4138.6673,N,07347.8455,W,1,09,1.19,93.8,M,-34.1,M,,*61
$GPRMC,111107.000,A,4138.6673,N,07347.8455,W,49.04,103.62,120417,,,A*44
$GPGGA,111108.000,4138.6636,N,07347.8280,W,1,09,1.07,93.8,M,-34.1,M,,*6E
$GPRMC,111108.000,A,4138.6636,N,07347.8280,W,48.87,107.00,120417,,,A*4E
$GPGGA,111109.000,4138.6591,N,07347.8110,W,1,09,1.19,93.8,M,-34.1,M,,*64
$GPRMC,111109.000,A,4138.6591,N,07347.8110,W,48.58,111.30,120417,,,A*4D
$GPGGA,111110.000,4138.6536,N,07347.7946,W,1,09,1.19,93.7,M,-34.1,M,,*6A
$GPRMC,111110.000,A,4138.6536,N,07347.7946,W,48.56,115.70,120417,,,A*42
$GPGGA,111111.000,4138.6474,N,07347.7786,W,1,08,1.24,93.6,M,-34.1,M,,*60
$GPRMC,111111.000,A,4138.6474,N,07347.7786,W,48.57,118.72,120417,,,A*48
$GPGGA,111112.000,4138.6404,N,07347.7633,W,1,08,1.24,93.6,M,-34.1,M,,*6B
$GPRMC,111112.000,A,4138.6404,N,07347.7633,W,48.30,122.26,120417,,,A*4A
$GPGGA,111113.000,4138.6327,N,07347.7486,W,1,09,1.19,93.6,M,-34.1,M,,*6F
$GPRMC,111113.000,A,4138.6327,N,07347.7486,W,47.96,126.16,120417,,,A*45
$GPGGA,111114.000,4138.6243,N,07347.7348,W,1,09,1.19,93.7,M,-34.1,M,,*6F
$GPRMC,111114.000,A,4138.6243,N,07347.7348,W,47.95,130.19,120417,,,A*4F
$GPGGA,111115.000,4138.6152,N,07347.7216,W,1,09,1.19,93.7,M,-34.1,M,,*67
$GPRMC,111115.000,A,4138.6152,N,07347.7216,W,47.78,133.40,120417,,,A*4B
$GPGGA,111116.000,4138.6057,N,07347.7093,W,1,09,1.19,93.8,M,-34.1,M,,*60
$GPRMC,111116.000,A,4138.6057,N,07347.7093,W,47.34,136.85,120417,,,A*47
$GPGGA,111117.000,4138.5957,N,07347.6977,W,1,09,1.07,93.8,M,-34.1,M,,*66
$GPRMC,111117.000,A,4138.5957,N,07347.6977,W,47.29,140.10,120417,,,A*4F
$GPGGA,111118.000,4138.5852,N,07347.6871,W,1,09,1.19,93.9,M,-34.1,M,,*64
$GPRMC,111118.000,A,4138.5852,N,07347.6871,W,47.24,144.23,120417,,,A*4A
$GPGGA,111119.000,4138.5740,N,07347.6777,W,1,09,1.07,93.9,M,-34.1,M,,*6F
$GPRMC,111119.000,A,4138.5740,N,07347.6777,W,47.22,149.07,120417,,,A*43
$GPGGA,111120.000,4138.5623,N,07347.6695,W,1,09,1.07,94.0,M,-34.1,M,,*62
$GPRMC,111120.000,A,4138.5623,N,07347.6695,W,47.30,154.06,120417,,,A*4E
$GPGGA,111121.000,4138.5501,N,07347.6625,W,1,09,1.07,94.1,M,-34.1,M,,*6A
$GPRMC,111121.000,A,4138.5501,N,07347.6625,W,47.67,157.77,120417,,,A*40
$GPGGA,111122.000,4138.5376,N,07347.6562,W,1,09,1.19,94.2,M,-34.1,M,,*63
$GPRMC,111122.000,A,4138.5376,N,07347.6562,W,47.51,159.32,120417,,,A*4F
$GPGGA,111123.000,4138.5249,N,07347.6500,W,1,09,1.19,94.3,M,-34.1,M,,*6A
$GPRMC,111123.000,A,4138.5249,N,07347.6500,W,47.63,159.29,120417,,,A*4C
$GPGGA,111124.000,4138.5121,N,07347.6437,W,1,09,1.19,94.5,M,-34.1,M,,*63
$GPRMC,111124.000,A,4138.5121,N,07347.6437,W,47.76,158.63,120417,,,A*48
$GPGGA,111125.000,4138.4994,N,07347.6372,W,1,09,1.19,94.9,M,-34.1,M,,*6F
$GPRMC,111125.000,A,4138.4994,N,07347.6372,W,48.67,157.90,120417,,,A*44
$GPGGA,111126.000,4138.4869,N,07347.6305,W,1,09,1.19,95.4,M,-34.1,M,,*63
$GPRMC,111126.000,A,4138.4869,N,07347.6305,W,48.38,157.20,120417,,,A*45
$GPGGA,111127.000,4138.4744,N,07347.6235,W,1,09,1.19,96.0,M,-34.1,M,,*67
$GPRMC,111127.000,A,4138.4744,N,07347.6235,W,48.14,156.49,120417,,,A*46
$GPGGA,111128.000,4138.4620,N,07347.6165,W,1,09,1.07,96.5,M,-34.1,M,,*67
$GPRMC,111128.000,A,4138.4620,N,07347.6165,W,47.96,156.21,120417,,,A*47
$GPGGA,111129.000,4138.4498,N,07347.6093,W,1,09,1.07,97.0,M,-34.1,M,,*6B
$GPRMC,111129.000,A,4138.4498,N,07347.6093,W,47.71,154.94,120417,,,A*4A
$GPGGA,111130.000,4138.4378,N,07347.6017,W,1,09,1.07,97.4,M,-34.1,M,,*62
$GPRMC,111130.000,A,4138.4378,N,07347.6017,W,47.69,152.84,120417,,,A*49
$GPGGA,111131.000,4138.4260,N,07347.5934,W,1,09,1.19,97.9,M,-34.1,M,,*62
$GPRMC,111131.000,A,4138.4260,N,07347.5934,W,47.93,150.35,120417,,,A*46
$GPGGA,111132.000,4138.4146,N,07347.5845,W,1,09,1.19,98.3,M,-34.1,M,,*64
$GPRMC,111132.000,A,4138.4146,N,07347.5845,W,46.83,148.12,120417,,,A*49
$GPGGA,111133.000,4138.4036,N,07347.5750,W,1,09,1.19,98.4,M,-34.1,M,,*6F
$GPRMC,111133.000,A,4138.4036,N,07347.5750,W,47.44,145.82,120417,,,A*4B
$GPGGA,111134.000,4138.3927,N,07347.5648,W,1,09,1.19,98.6,M,-34.1,M,,*6C
$GPRMC,111134.000,A,4138.3927,N,07347.5648,W,47.99,143.00,120417,,,A*46
$GPGGA,111135.000,4138.3821,N,07347.5537,W,1,09,1.07,98.6,M,-34.1,M,,*6E
$GPRMC,111135.000,A,4138.3821,N,07347.5537,W,48.33,140.61,120417,,,A*40
$GPGGA,111136.000,4138.3718,N,07347.5422,W,1,09,1.19,98.5,M,-34.1,M,,*61
$GPRMC,111136.000,A,4138.3718,N,07347.5422,W,48.12,139.33,120417,,,A*49
$GPGGA,111137.000,4138.3615,N,07347.5306,W,1,09,1.19,98.7,M,-34.1,M,,*6F
$GPRMC,111137.000,A,4138.3615,N,07347.5306,W,48.16,139.81,120417,,,A*48
$GPGGA,111138.000,4138.3512,N,07347.5191,W,1,09,1.19,99.0,M,-34.1,M,,*6E
$GPRMC,111138.000,A,4138.3512,N,07347.5191,W,48.08,140.43,120417,,,A*40
$GPGGA,111139.000,4138.3409,N,07347.5078,W,1,09,1.19,99.3,M,-34.1,M,,*61
$GPRMC,111139.000,A,4138.3409,N,07347.5078,W,47.76,140.09,120417,,,A*44
$GPGGA,111140.000,4138.3306,N,07347.4964,W,1,09,1.19,99.8,M,-34.1,M,,*69
$GPRMC,111140.000,A,4138.3306,N,07347.4964,W,47.74,139.98,120417,,,A*43
$GPGGA,111141.000,4138.3202,N,07347.4851,W,1,09,1.19,100.1,M,-34.1,M,,*52
$GPRMC,111141.000,A,4138.3202,N,07347.4851,W,48.04,140.74,120417,,,A*44
$GPGGA,111142.000,4138.3098,N,07347.4739,W,1,09,1.19,100.1,M,-34.1,M,,*51
$GPRMC,111142.000,A,4138.3098,N,07347.4739,W,47.82,141.50,120417,,,A*41
$GPGGA,111143.000,4138.2993,N,07347.4629,W,1,09,1.19,100.0,M,-34.1,M,,*52
$GPRMC,111143.000,A,4138.2993,N,07347.4629,W,47.45,141.81,120417,,,A*44
$GPGGA,111144.000,4138.2890,N,07347.4519,W,1,09,1.19,99.9,M,-34.1,M,,*6F
$GPRMC,111144.000,A,4138.2890,N,07347.4519,W,47.20,140.52,120417,,,A*4D
$GPGGA,111145.000,4138.2790,N,07347.4404,W,1,09,1.19,99.5,M,-34.1,M,,*60
$GPRMC,111145.000,A,4138.2790,N,07347.4404,W,47.22,136.57,120417,,,A*48
$GPGGA,111146.000,4138.2697,N,07347.4279,W,1,09,1.19,99.2,M,-34.1,M,,*6E
$GPRMC,111146.000,A,4138.2697,N,07347.4279,W,47.19,133.08,120417,,,A*46
$GPGGA,111147.000,4138.2606,N,07347.4149,W,1,09,1.19,99.0,M,-34.1,M,,*65
$GPRMC,111147.000,A,4138.2606,N,07347.4149,W,47.64,131.49,120417,,,A*42
$GPGGA,111148.000,4138.2517,N,07347.4018,W,1,09,1.19,99.1,M,-34.1,M,,*6D
$GPRMC,111148.000,A,4138.2517,N,07347.4018,W,47.62,132.44,120417,,,A*43
$GPGGA,111149.000,4138.2427,N,07347.3889,W,1,09,1.07,99.2,M,-34.1,M,,*65
$GPRMC,111149.000,A,4138.2427,N,07347.3889,W,47.42,132.91,120417,,,A*4D
$GPGGA,111150.000,4138.2335,N,07347.3761,W,1,09,1.19,99.3,M,-34.1,M,,*6E
$GPRMC,111150.000,A,4138.2335,N,07347.3761,W,47.42,133.54,120417,,,A*40
$GPGGA,111151.000,4138.2243,N,07347.3635,W,1,09,1.19,99.8,M,-34.1,M,,*64
$GPRMC,111151.000,A,4138.2243,N,07347.3635,W,47.39,134.61,120417,,,A*4C
$GPGGA,111152.000,4138.2149,N,07347.3511,W,1,09,1.19,100.4,M,-34.1,M,,*56
$GPRMC,111152.000,A,4138.2149,N,07347.3511,W,47.33,135.56,120417,,,A*4C
$GPGGA,111153.000,4138.2054,N,07347.3390,W,1,09,1.19,101.2,M,-34.1,M,,*52
$GPRMC,111153.000,A,4138.2054,N,07347.3390,W,47.31,136.45,120417,,,A*4C
$GPGGA,111154.000,4138.1958,N,07347.3270,W,1,09,1.19,102.0,M,-34.1,M,,*5D
$GPRMC,111154.000,A,4138.1958,N,07347.3270,W,47.54,137.08,120417,,,A*49
$GPGGA,111155.000,4138.1860,N,07347.3150,W,1,09,1.19,103.0,M,-34.1,M,,*56
$GPRMC,111155.000,A,4138.1860,N,07347.3150,W,47.59,137.41,120417,,,A*43
$GPGGA,111156.000,4138.1761,N,07347.3032,W,1,09,1.19,104.0,M,-34.1,M,,*59
$GPRMC,111156.000,A,4138.1761,N,07347.3032,W,47.55,138.94,120417,,,A*40
$GPGGA,111157.000,4138.1661,N,07347.2916,W,1,09,1.19,105.0,M,-34.1,M,,*56
$GPRMC,111157.000,A,4138.1661,N,07347.2916,W,47.56,139.06,120417,,,A*47
$GPGGA,111158.000,4138.1561,N,07347.2802,W,1,09,1.19,105.6,M,-34.1,M,,*58
$GPRMC,111158.000,A,4138.1561,N,07347.2802,W,47.60,139.56,120417,,,A*4F
$GPGGA,111159.000,4138.1461,N,07347.2688,W,1,09,1.19,106.2,M,-34.1,M,,*53
$GPRMC,111159.000,A,4138.1461,N,07347.2688,W,47.35,139.27,120417,,,A*45
$GPGGA,111200.000,4138.1363,N,07347.2574,W,1,09,1.07,106.5,M,-34.1,M,,*51
$GPRMC,111200.000,A,4138.1363,N,07347.2574,W,46.84,138.77,120417,,,A*40
$GPGGA,111201.000,4138.1264,N,07347.2459,W,1,09,1.19,106.6,M,-34.1,M,,*54
$GPRMC,111201.000,A,4138.1264,N,07347.2459,W,47.10,139.16,120417,,,A*43
$GPGGA,111202.000,4138.1165,N,07347.2344,W,1,09,1.19,106.7,M,-34.1,M,,*5F
$GPRMC,111202.000,A,4138.1165,N,07347.2344,W,47.23,138.91,120417,,,A*47
$GPGGA,111203.000,4138.1066,N,07347.2230,W,1,09,1.19,106.6,M,-34.1,M,,*5F
$GPRMC,111203.000,A,4138.1066,N,07347.2230,W,47.17,139.12,120417,,,A*4B
$GPGGA,111204.000,4138.0966,N,07347.2116,W,1,09,1.19,106.6,M,-34.1,M,,*57
$GPRMC,111204.000,A,4138.0966,N,07347.2116,W,47.05,139.21,120417,,,A*40
$GPGGA,111205.000,4138.0868,N,07347.2002,W,1,09,1.19,106.8,M,-34.1,M,,*53
$GPRMC,111205.000,A,4138.0868,N,07347.2002,W,46.54,138.87,120417,,,A*42
$GPGGA,111206.000,4138.0770,N,07347.1889,W,1,09,1.19,106.7,M,-34.1,M,,*51
$GPRMC,111206.000,A,4138.0770,N,07347.1889,W,46.31,139.23,120417,,,A*43
$GPGGA,111207.000,4138.0672,N,07347.1778,W,1,09,1.07,106.8,M,-34.1,M,,*52
$GPRMC,111207.000,A,4138.0672,N,07347.1778,W,46.26,139.31,120417,,,A*45
$GPGGA,111208.000,4138.0575,N,07347.1665,W,1,09,1.19,106.9,M,-34.1,M,,*5A
$GPRMC,111208.000,A,4138.0575,N,07347.1665,W,46.24,138.59,120417,,,A*4E
$GPGGA,111209.000,4138.0478,N,07347.1552,W,1,09,1.19,107.2,M,-34.1,M,,*5A
$GPRMC,111209.000,A,4138.0478,N,07347.1552,W,46.26,138.70,120417,,,A*4D
$GPGGA,111210.000,4138.0381,N,07347.1440,W,1,09,1.19,107.2,M,-34.1,M,,*51
$GPRMC,111210.000,A,4138.0381,N,07347.1440,W,46.03,139.67,120417,,,A*46
$GPGGA,111211.000,4138.0285,N,07347.1330,W,1,09,1.19,107.1,M,-34.1,M,,*56
$GPRMC,111211.000,A,4138.0285,N,07347.1330,W,45.16,139.23,120417,,,A*45
$GPGGA,111212.000,4138.0190,N,07347.1222,W,1,09,1.19,107.2,M,-34.1,M,,*53
$GPRMC,111212.000,A,4138.0190,N,07347.1222,W,44.39,139.12,120417,,,A*4D
$GPGGA,111213.000,4138.0097,N,07347.1115,W,1,09,1.07,107.4,M,-34.1,M,,*5A
$GPRMC,111213.000,A,4138.0097,N,07347.1115,W,43.92,139.01,120417,,,A*49
$GPGGA,111214.000,4138.0008,N,07347.1005,W,1,09,1.07,108.1,M,-34.1,M,,*51
$GPRMC,111214.000,A,4138.0008,N,07347.1005,W,43.42,135.69,120417,,,A*47
$GPGGA,111215.000,4137.9923,N,07347.0893,W,1,09,1.19,108.7,M,-34.1,M,,*59
$GPRMC,111215.000,A,4137.9923,N,07347.0893,W,43.14,133.96,120417,,,A*43
$GPGGA,111216.000,4137.9843,N,07347.0776,W,1,09,1.19,109.8,M,-34.1,M,,*57
$GPRMC,111216.000,A,4137.9843,N,07347.0776,W,42.50,129.75,120417,,,A*44
$GPGGA,111217.000,4137.9772,N,07347.0653,W,1,09,1.19,110.3,M,-34.1,M,,*5E
$GPRMC,111217.000,A,4137.9772,N,07347.0653,W,42.12,124.53,120417,,,A*41
$GPGGA,111218.000,4137.9711,N,07347.0522,W,1,09,1.19,110.9,M,-34.1,M,,*5B
$GPRMC,111218.000,A,4137.9711,N,07347.0522,W,41.94,119.32,120417,,,A*4A
$GPGGA,111219.000,4137.9658,N,07347.0384,W,1,09,1.19,111.7,M,-34.1,M,,*53
$GPRMC,111219.000,A,4137.9658,N,07347.0384,W,42.02,114.68,120417,,,A*43
$GPGGA,111220.000,4137.9614,N,07347.0241,W,1,09,1.07,112.1,M,-34.1,M,,*53
$GPRMC,111220.000,A,4137.9614,N,07347.0241,W,41.70,110.40,120417,,,A*41
$GPGGA,111221.000,4137.9573,N,07347.0096,W,1,09,1.07,112.3,M,-34.1,M,,*5A
$GPRMC,111221.000,A,4137.9573,N,07347.0096,W,42.39,110.76,120417,,,A*41
$GPGGA,111222.000,4137.9532,N,07346.9951,W,1,09,1.19,112.3,M,-34.1,M,,*59
$GPRMC,111222.000,A,4137.9532,N,07346.9951,W,42.08,110.39,120417,,,A*44
$GPGGA,111223.000,4137.9491,N,07346.9805,W,1,09,1.19,112.7,M,-34.1,M,,*54
$GPRMC,111223.000,A,4137.9491,N,07346.9805,W,42.07,109.77,120417,,,A*40
$GPGGA,111224.000,4137.9453,N,07346.9662,W,1,09,1.19,113.2,M,-34.1,M,,*56
$GPRMC,111224.000,A,4137.9453,N,07346.9662,W,40.49,109.46,120417,,,A*4C
$GPGGA,111225.000,4137.9415,N,07346.9526,W,1,09,1.19,113.8,M,-34.1,M,,*5C
$GPRMC,111225.000,A,4137.9415,N,07346.9526,W,37.91,112.43,120417,,,A*46
$GPGGA,111226.000,4137.9370,N,07346.9411,W,1,09,1.07,114.4,M,-34.1,M,,*5A
$GPRMC,111226.000,A,4137.9370,N,07346.9411,W,32.90,122.94,120417,,,A*49
$GPGGA,111227.000,4137.9313,N,07346.9318,W,1,09,1.19,115.3,M,-34.1,M,,*59
$GPRMC,111227.000,A,4137.9313,N,07346.9318,W,32.53,134.90,120417,,,A*4F
$GPGGA,111228.000,4137.9244,N,07346.9242,W,1,09,1.19,115.7,M,-34.1,M,,*5F
$GPRMC,111228.000,A,4137.9244,N,07346.9242,W,31.53,145.29,120417,,,A*4A
$GPGGA,111229.000,4137.9165,N,07346.9187,W,1,09,1.07,115.9,M,-34.1,M,,*55
$GPRMC,111229.000,A,4137.9165,N,07346.9187,W,30.41,157.52,120417,,,A*4C
$GPGGA,111230.000,4137.9072,N,07346.9147,W,1,08,1.35,115.9,M,-34.1,M,,*56
$GPRMC,111230.000,A,4137.9072,N,07346.9147,W,37.05,164.92,120417,,,A*44
$GPGGA,111231.000,4137.8972,N,07346.9116,W,1,09,1.19,115.6,M,-34.1,M,,*5B
$GPRMC,111231.000,A,4137.8972,N,07346.9116,W,37.58,167.88,120417,,,A*49
$GPGGA,111232.000,4137.8867,N,07346.9087,W,1,08,1.35,115.2,M,-34.1,M,,*5F
$GPRMC,111232.000,A,4137.8867,N,07346.9087,W,40.02,168.09,120417,,,A*4F
$GPGGA,111233.000,4137.8752,N,07346.9054,W,1,09,1.19,114.9,M,-34.1,M,,*5C
$GPRMC,111233.000,A,4137.8752,N,07346.9054,W,43.89,167.09,120417,,,A*46
$GPGGA,111234.000,4137.8628,N,07346.9015,W,1,09,1.19,114.6,M,-34.1,M,,*5D
$GPRMC,111234.000,A,4137.8628,N,07346.9015,W,46.49,165.70,120417,,,A*4D
$GPGGA,111235.000,4137.8500,N,07346.8968,W,1,09,1.07,114.5,M,-34.1,M,,*5B
$GPRMC,111235.000,A,4137.8500,N,07346.8968,W,48.41,163.31,120417,,,A*42
$GPGGA,111236.000,4137.8369,N,07346.8911,W,1,08,1.13,113.9,M,-34.1,M,,*50
$GPRMC,111236.000,A,4137.8369,N,07346.8911,W,50.95,160.22,120417,,,A*47
$GPGGA,111237.000,4137.8236,N,07346.8848,W,1,09,1.07,112.4,M,-34.1,M,,*5F
$GPRMC,111237.000,A,4137.8236,N,07346.8848,W,51.91,158.37,120417,,,A*4A
$GPGGA,111238.000,4137.8098,N,07346.8775,W,1,08,1.35,111.7,M,-34.1,M,,*57
$GPRMC,111238.000,A,4137.8098,N,07346.8775,W,53.56,156.64,120417,,,A*43
$GPGGA,111239.000,4137.7961,N,07346.8693,W,1,08,1.35,111.6,M,-34.1,M,,*5E
$GPRMC,111239.000,A,4137.7961,N,07346.8693,W,53.54,153.12,120417,,,A*4D
$GPGGA,111240.000,4137.7829,N,07346.8600,W,1,09,1.19,111.5,M,-34.1,M,,*5B
$GPRMC,111240.000,A,4137.7829,N,07346.8600,W,53.21,149.73,120417,,,A*4A
$GPGGA,111241.000,4137.7701,N,07346.8498,W,1,09,1.19,112.1,M,-34.1,M,,*5B
$GPRMC,111241.000,A,4137.7701,N,07346.8498,W,53.26,147.46,120417,,,A*42
$GPGGA,111242.000,4137.7576,N,07346.8389,W,1,09,1.07,113.2,M,-34.1,M,,*50
$GPRMC,111242.000,A,4137.7576,N,07346.8389,W,53.23,145.35,120417,,,A*47
$GPGGA,111243.000,4137.7454,N,07346.8275,W,1,09,1.19,113.9,M,-34.1,M,,*56
$GPRMC,111243.000,A,4137.7454,N,07346.8275,W,53.56,143.86,120417,,,A*49
$GPGGA,111244.000,4137.7334,N,07346.8155,W,1,09,1.19,114.3,M,-34.1,M,,*5C
$GPRMC,111244.000,A,4137.7334,N,07346.8155,W,53.80,141.96,120417,,,A*46
$GPGGA,111245.000,4137.7217,N,07346.8029,W,1,09,1.19,114.4,M,-34.1,M,,*50
$GPRMC,111245.000,A,4137.7217,N,07346.8029,W,54.14,139.63,120417,,,A*42
$GPGGA,111246.000,4137.7104,N,07346.7895,W,1,09,1.07,114.2,M,-34.1,M,,*5B
$GPRMC,111246.000,A,4137.7104,N,07346.7895,W,54.42,137.25,120417,,,A*4F
$GPGGA,111247.000,4137.6995,N,07346.7754,W,1,09,1.07,113.7,M,-34.1,M,,*5B
$GPRMC,111247.000,A,4137.6995,N,07346.7754,W,54.62,134.86,120417,,,A*45
$GPGGA,111248.000,4137.6889,N,07346.7607,W,1,09,1.07,112.8,M,-34.1,M,,*51
$GPRMC,111248.000,A,4137.6889,N,07346.7607,W,54.87,133.10,120417,,,A*42
$GPGGA,111249.000,4137.6786,N,07346.7456,W,1,09,1.19,111.5,M,-34.1,M,,*57
$GPRMC,111249.000,A,4137.6786,N,07346.7456,W,54.89,132.14,120417,,,A*4E
$GPGGA,111250.000,4137.6683,N,07346.7303,W,1,09,1.19,110.1,M,-34.1,M,,*59
$GPRMC,111250.000,A,4137.6683,N,07346.7303,W,55.72,131.57,120417,,,A*44
$GPGGA,111251.000,4137.6581,N,07346.7147,W,1,09,1.19,108.4,M,-34.1,M,,*57
$GPRMC,111251.000,A,4137.6581,N,07346.7147,W,56.07,130.75,120417,,,A*46
$GPGGA,111252.000,4137.6481,N,07346.6988,W,1,09,1.19,106.9,M,-34.1,M,,*5C
$GPRMC,111252.000,A,4137.6481,N,07346.6988,W,56.75,130.21,120417,,,A*4A
$GPGGA,111253.000,4137.6380,N,07346.6826,W,1,09,1.19,105.7,M,-34.1,M,,*53
$GPRMC,111253.000,A,4137.6380,N,07346.6826,W,56.44,129.40,120417,,,A*45
$GPGGA,111254.000,4137.6281,N,07346.6663,W,1,09,1.19,105.0,M,-34.1,M,,*5C
$GPRMC,111254.000,A,4137.6281,N,07346.6663,W,56.37,128.74,120417,,,A*4F
$GPGGA,111255.000,4137.6184,N,07346.6496,W,1,09,1.19,104.5,M,-34.1,M,,*57
$GPRMC,111255.000,A,4137.6184,N,07346.6496,W,56.82,126.87,120417,,,A*4C
$GPGGA,111256.000,4137.6091,N,07346.6323,W,1,09,1.19,104.2,M,-34.1,M,,*5F
$GPRMC,111256.000,A,4137.6091,N,07346.6323,W,56.82,125.00,120417,,,A*4F
$GPGGA,111257.000,4137.6000,N,07346.6146,W,1,09,1.19,103.9,M,-34.1,M,,*5B
$GPRMC,111257.000,A,4137.6000,N,07346.6146,W,58.13,124.54,120417,,,A*41
$GPGGA,111258.000,4137.5908,N,07346.5967,W,1,09,1.19,103.7,M,-34.1,M,,*50
$GPRMC,111258.000,A,4137.5908,N,07346.5967,W,58.83,124.69,120417,,,A*43
$GPGGA,111259.000,4137.5815,N,07346.5787,W,1,09,1.19,103.6,M,-34.1,M,,*5D
$GPRMC,111259.000,A,4137.5815,N,07346.5787,W,58.82,124.68,120417,,,A*4F
$GPGGA,111300.000,4137.5723,N,07346.5606,W,1,09,1.19,103.6,M,-34.1,M,,*52
$GPRMC,111300.000,A,4137.5723,N,07346.5606,W,58.48,123.90,120417,,,A*46
$GPGGA,111301.000,4137.5633,N,07346.5425,W,1,09,1.19,104.0,M,-34.1,M,,*51
$GPRMC,111301.000,A,4137.5633,N,07346.5425,W,58.45,123.52,120417,,,A*47
$GPGGA,111302.000,4137.5544,N,07346.5244,W,1,09,1.19,104.6,M,-34.1,M,,*56
$GPRMC,111302.000,A,4137.5544,N,07346.5244,W,58.48,123.51,120417,,,A*48
$GPGGA,111303.000,4137.5454,N,07346.5062,W,1,09,1.19,105.5,M,-34.1,M,,*53
$GPRMC,111303.000,A,4137.5454,N,07346.5062,W,58.48,123.54,120417,,,A*4A
$GPGGA,111304.000,4137.5365,N,07346.4882,W,1,09,1.19,106.6,M,-34.1,M,,*56
$GPRMC,111304.000,A,4137.5365,N,07346.4882,W,58.25,123.55,120417,,,A*45
$GPGGA,111305.000,4137.5277,N,07346.4702,W,1,09,1.19,108.0,M,-34.1,M,,*5A
$GPRMC,111305.000,A,4137.5277,N,07346.4702,W,57.96,123.37,120417,,,A*42
$GPGGA,111306.000,4137.5188,N,07346.4522,W,1,09,1.19,109.5,M,-34.1,M,,*5E
$GPRMC,111306.000,A,4137.5188,N,07346.4522,W,57.62,123.14,120417,,,A*48
$GPGGA,111307.000,4137.5101,N,07346.4344,W,1,09,1.19,110.9,M,-34.1,M,,*5C
$GPRMC,111307.000,A,4137.5101,N,07346.4344,W,57.55,123.44,120417,,,A*4F
$GPGGA,111308.000,4137.5012,N,07346.4166,W,1,09,1.19,112.3,M,-34.1,M,,*5A
$GPRMC,111308.000,A,4137.5012,N,07346.4166,W,57.52,123.44,120417,,,A*46
$GPGGA,111309.000,4137.4924,N,07346.3989,W,1,09,1.19,113.9,M,-34.1,M,,*53
$GPRMC,111309.000,A,4137.4924,N,07346.3989,W,57.35,123.81,120417,,,A*4C
$GPGGA,111310.000,4137.4835,N,07346.3813,W,1,09,1.19,115.3,M,-34.1,M,,*54
