$GPGGA,205328.435,,,,,0,00,,,M,,M,,*74
$GPRMC,205328.435,V,,,,,0.00,0.00,060417,,,N*45
$GPGGA,205329.317,,,,,0,06,,,M,,M,,*74
$GPRMC,205329.317,V,,,,,0.85,302.82,060417,,,N*45
$GPGGA,205330.367,4123.6895,N,07357.1720,W,1,08,0.93,73.3,M,-34.1,M,,*61
$GPRMC,205330.367,A,4123.6895,N,07357.1720,W,0.35,273.01,060417,,,A*78
$GPGGA,205331.375,4123.6875,N,07357.1698,W,1,09,0.86,68.9,M,-34.1,M,,*6A
$GPRMC,205331.375,A,4123.6875,N,07357.1698,W,0.41,43.98,060417,,,A*44
$GPGGA,205332.377,4123.6871,N,07357.1698,W,1,10,0.82,67.9,M,-34.1,M,,*6C
$GPRMC,205332.377,A,4123.6871,N,07357.1698,W,0.18,39.48,060417,,,A*4D
$GPGGA,205333.376,4123.6867,N,07357.1709,W,1,10,0.82,66.7,M,-34.1,M,,*6D
$GPRMC,205333.376,A,4123.6867,N,07357.1709,W,0.53,16.90,060417,,,A*44
$GPGGA,205334.378,4123.6861,N,07357.1724,W,1,10,0.82,63.9,M,-34.1,M,,*66
$GPRMC,205334.378,A,4123.6861,N,07357.1724,W,0.49,51.00,060417,,,A*45
$GPGGA,205335.379,4123.6862,N,07357.1741,W,1,09,0.98,60.7,M,-34.1,M,,*68
$GPRMC,205335.379,A,4123.6862,N,07357.1741,W,0.20,56.95,060417,,,A*41
$GPGGA,205336.379,4123.6861,N,07357.1735,W,1,08,1.10,61.7,M,-34.1,M,,*6A
$GPRMC,205336.379,A,4123.6861,N,07357.1735,W,0.13,58.49,060417,,,A*4D
$GPGGA,205337.416,4123.6833,N,07357.1696,W,1,10,0.82,62.1,M,-34.1,M,,*6C
$GPRMC,205337.416,A,4123.6833,N,07357.1696,W,0.25,229.32,060417,,,A*70
$GPGGA,205339.000,4123.6850,N,07357.1705,W,1,10,0.82,52.5,M,-34.1,M,,*68
$GPRMC,205339.000,A,4123.6850,N,07357.1705,W,0.14,268.76,060417,,,A*74
$GPGGA,205340.000,4123.6852,N,07357.1693,W,1,10,0.82,49.8,M,-34.1,M,,*6D
$GPRMC,205340.000,A,4123.6852,N,07357.1693,W,0.83,254.68,060417,,,A*78
$GPGGA,205341.000,4123.6855,N,07357.1691,W,1,10,0.82,47.9,M,-34.1,M,,*66
$GPRMC,205341.000,A,4123.6855,N,07357.1691,W,1.57,256.22,060417,,,A*78
$GPGGA,205342.000,4123.6861,N,07357.1703,W,1,10,0.82,45.9,M,-34.1,M,,*6A
$GPRMC,205342.000,A,4123.6861,N,07357.1703,W,2.70,255.85,060417,,,A*7E
$GPGGA,205343.000,4123.6864,N,07357.1713,W,1,10,0.82,45.2,M,-34.1,M,,*64
$GPRMC,205343.000,A,4123.6864,N,07357.1713,W,3.53,245.97,060417,,,A*79
$GPGGA,205344.000,4123.6859,N,07357.1723,W,1,10,0.82,44.8,M,-34.1,M,,*65
$GPRMC,205344.000,A,4123.6859,N,07357.1723,W,2.86,229.92,060417,,,A*75
$GPGGA,205345.000,4123.6851,N,07357.1730,W,1,10,0.82,44.6,M,-34.1,M,,*60
$GPRMC,205345.000,A,4123.6851,N,07357.1730,W,3.02,208.44,060417,,,A*7B
$GPGGA,205346.000,4123.6848,N,07357.1738,W,1,10,0.82,45.2,M,-34.1,M,,*66
$GPRMC,205346.000,A,4123.6848,N,07357.1738,W,0.42,209.11,060417,,,A*7E
$GPGGA,205347.000,4123.6845,N,07357.1738,W,1,10,0.82,45.3,M,-34.1,M,,*6B
$GPRMC,205347.000,A,4123.6845,N,07357.1738,W,0.12,234.68,060417,,,A*77
$GPGGA,205348.000,4123.6845,N,07357.1738,W,1,10,0.82,47.1,M,-34.1,M,,*64
$GPRMC,205348.000,A,4123.6845,N,07357.1738,W,0.53,336.68,060417,,,A*7E
$GPGGA,205349.000,4123.6852,N,07357.1739,W,1,10,0.82,47.7,M,-34.1,M,,*64
$GPRMC,205349.000,A,4123.6852,N,07357.1739,W,4.45,345.14,060417,,,A*74
$GPGGA,205350.000,4123.6874,N,07357.1732,W,1,10,0.85,46.6,M,-34.1,M,,*64
$GPRMC,205350.000,A,4123.6874,N,07357.1732,W,8.23,338.83,060417,,,A*7B
$GPGGA,205351.000,4123.6897,N,07357.1741,W,1,10,0.85,45.7,M,-34.1,M,,*6E
$GPRMC,205351.000,A,4123.6897,N,07357.1741,W,11.40,333.15,060417,,,A*4A
$GPGGA,205352.000,4123.6922,N,07357.1766,W,1,09,1.09,45.4,M,-34.1,M,,*69
$GPRMC,205352.000,A,4123.6922,N,07357.1766,W,14.24,323.91,060417,,,A*49
$GPGGA,205353.000,4123.6953,N,07357.1798,W,1,10,0.85,45.1,M,-34.1,M,,*67
$GPRMC,205353.000,A,4123.6953,N,07357.1798,W,15.50,317.21,060417,,,A*41
$GPGGA,205354.000,4123.6985,N,07357.1836,W,1,10,0.85,44.8,M,-34.1,M,,*68
$GPRMC,205354.000,A,4123.6985,N,07357.1836,W,15.95,315.29,060417,,,A*45
$GPGGA,205355.000,4123.7014,N,07357.1879,W,1,10,0.85,44.4,M,-34.1,M,,*6E
$GPRMC,205355.000,A,4123.7014,N,07357.1879,W,15.87,306.91,060417,,,A*4D
$GPGGA,205356.000,4123.7038,N,07357.1927,W,1,10,0.85,44.4,M,-34.1,M,,*69
$GPRMC,205356.000,A,4123.7038,N,07357.1927,W,16.11,301.65,060417,,,A*4A
$GPGGA,205357.000,4123.7063,N,07357.1976,W,1,10,0.85,44.0,M,-34.1,M,,*66
$GPRMC,205357.000,A,4123.7063,N,07357.1976,W,16.20,299.62,060417,,,A*44
$GPGGA,205358.000,4123.7084,N,07357.2025,W,1,10,0.85,42.9,M,-34.1,M,,*63
$GPRMC,205358.000,A,4123.7084,N,07357.2025,W,15.92,298.06,060417,,,A*47
$GPGGA,205359.000,4123.7106,N,07357.2081,W,1,10,0.85,42.3,M,-34.1,M,,*6D
$GPRMC,205359.000,A,4123.7106,N,07357.2081,W,17.37,295.10,060417,,,A*44
$GPGGA,205400.000,4123.7128,N,07357.2144,W,1,10,0.85,42.0,M,-34.1,M,,*61
$GPRMC,205400.000,A,4123.7128,N,07357.2144,W,19.17,292.89,060417,,,A*40
$GPGGA,205401.000,4123.7149,N,07357.2213,W,1,10,0.85,41.9,M,-34.1,M,,*6C
$GPRMC,205401.000,A,4123.7149,N,07357.2213,W,20.34,290.82,060417,,,A*45
$GPGGA,205402.000,4123.7167,N,07357.2285,W,1,10,0.85,42.4,M,-34.1,M,,*62
$GPRMC,205402.000,A,4123.7167,N,07357.2285,W,20.28,289.68,060417,,,A*44
$GPGGA,205403.000,4123.7185,N,07357.2359,W,1,10,0.85,42.8,M,-34.1,M,,*63
$GPRMC,205403.000,A,4123.7185,N,07357.2359,W,20.77,286.67,060417,,,A*43
$GPGGA,205404.000,4123.7201,N,07357.2432,W,1,10,0.85,43.0,M,-34.1,M,,*68
$GPRMC,205404.000,A,4123.7201,N,07357.2432,W,19.80,286.07,060417,,,A*45
$GPGGA,205405.000,4123.7215,N,07357.2503,W,1,10,0.85,43.7,M,-34.1,M,,*68
$GPRMC,205405.000,A,4123.7215,N,07357.2503,W,19.52,284.42,060417,,,A*4E
$GPGGA,205406.000,4123.7226,N,07357.2576,W,1,10,0.85,44.5,M,-34.1,M,,*6C
$GPRMC,205406.000,A,4123.7226,N,07357.2576,W,19.10,281.49,060417,,,A*47
$GPGGA,205407.000,4123.7235,N,07357.2646,W,1,10,0.85,45.0,M,-34.1,M,,*6B
$GPRMC,205407.000,A,4123.7235,N,07357.2646,W,19.04,276.68,060417,,,A*4A
$GPGGA,205408.000,4123.7239,N,07357.2717,W,1,10,0.85,45.5,M,-34.1,M,,*68
$GPRMC,205408.000,A,4123.7239,N,07357.2717,W,18.81,272.44,060417,,,A*4A
$GPGGA,205409.000,4123.7240,N,07357.2786,W,1,10,0.85,46.1,M,-34.1,M,,*68
$GPRMC,205409.000,A,4123.7240,N,07357.2786,W,17.93,271.17,060417,,,A*44
$GPGGA,205410.000,4123.7240,N,07357.2852,W,1,10,0.85,46.7,M,-34.1,M,,*60
$GPRMC,205410.000,A,4123.7240,N,07357.2852,W,17.96,268.41,060417,,,A*44
$GPGGA,205411.000,4123.7238,N,07357.2919,W,1,10,0.85,47.3,M,-34.1,M,,*65
$GPRMC,205411.000,A,4123.7238,N,07357.2919,W,18.35,266.66,060417,,,A*49
$GPGGA,205412.000,4123.7232,N,07357.2988,W,1,10,0.85,47.9,M,-34.1,M,,*6E
$GPRMC,205412.000,A,4123.7232,N,07357.2988,W,19.21,262.50,060417,,,A*4D
$GPGGA,205413.000,4123.7223,N,07357.3059,W,1,10,0.85,48.6,M,-34.1,M,,*6B
$GPRMC,205413.000,A,4123.7223,N,07357.3059,W,19.79,258.52,060417,,,A*4E
$GPGGA,205414.000,4123.7210,N,07357.3130,W,1,10,0.85,49.3,M,-34.1,M,,*66
$GPRMC,205414.000,A,4123.7210,N,07357.3130,W,19.14,255.21,060417,,,A*45
$GPGGA,205415.000,4123.7195,N,07357.3199,W,1,10,0.85,49.9,M,-34.1,M,,*60
$GPRMC,205415.000,A,4123.7195,N,07357.3199,W,19.85,252.21,060417,,,A*46
$GPGGA,205416.000,4123.7177,N,07357.3266,W,1,10,0.85,50.1,M,-34.1,M,,*6C
$GPRMC,205416.000,A,4123.7177,N,07357.3266,W,19.15,248.92,060417,,,A*40
$GPGGA,205417.000,4123.7156,N,07357.3331,W,1,10,0.85,50.3,M,-34.1,M,,*6F
$GPRMC,205417.000,A,4123.7156,N,07357.3331,W,18.71,243.74,060417,,,A*41
$GPGGA,205418.000,4123.7131,N,07357.3390,W,1,10,0.85,50.4,M,-34.1,M,,*6D
$GPRMC,205418.000,A,4123.7131,N,07357.3390,W,17.93,241.12,060417,,,A*45
$GPGGA,205419.000,4123.7106,N,07357.3447,W,1,10,0.85,50.4,M,-34.1,M,,*65
$GPRMC,205419.000,A,4123.7106,N,07357.3447,W,17.51,239.77,060417,,,A*4F
$GPGGA,205420.000,4123.7080,N,07357.3502,W,1,10,0.85,50.7,M,-34.1,M,,*63
$GPRMC,205420.000,A,4123.7080,N,07357.3502,W,17.73,235.10,060417,,,A*47
$GPGGA,205421.000,4123.7044,N,07357.3560,W,1,09,1.08,50.3,M,-34.1,M,,*66
$GPRMC,205421.000,A,4123.7044,N,07357.3560,W,19.79,234.17,060417,,,A*48
$GPGGA,205422.000,4123.7010,N,07357.3620,W,1,10,0.85,50.6,M,-34.1,M,,*6A
$GPRMC,205422.000,A,4123.7010,N,07357.3620,W,20.89,232.78,060417,,,A*47
$GPGGA,205423.000,4123.6975,N,07357.3679,W,1,10,0.85,50.4,M,-34.1,M,,*6E
$GPRMC,205423.000,A,4123.6975,N,07357.3679,W,20.73,231.60,060417,,,A*4E
$GPGGA,205424.000,4123.6940,N,07357.3738,W,1,10,0.85,50.0,M,-34.1,M,,*6F
$GPRMC,205424.000,A,4123.6940,N,07357.3738,W,20.76,230.67,060417,,,A*48
$GPGGA,205425.000,4123.6906,N,07357.3799,W,1,10,0.85,49.0,M,-34.1,M,,*6F
$GPRMC,205425.000,A,4123.6906,N,07357.3799,W,21.89,232.54,060417,,,A*43
$GPGGA,205426.000,4123.6869,N,07357.3860,W,1,10,0.85,48.7,M,-34.1,M,,*6B
$GPRMC,205426.000,A,4123.6869,N,07357.3860,W,21.20,232.57,060417,,,A*41
$GPGGA,205427.000,4123.6834,N,07357.3922,W,1,10,0.85,48.2,M,-34.1,M,,*60
$GPRMC,205427.000,A,4123.6834,N,07357.3922,W,21.59,233.54,060417,,,A*43
$GPGGA,205428.000,4123.6799,N,07357.3987,W,1,10,0.85,48.2,M,-34.1,M,,*68
$GPRMC,205428.000,A,4123.6799,N,07357.3987,W,21.65,234.89,060417,,,A*43
$GPGGA,205429.000,4123.6763,N,07357.4052,W,1,10,0.85,48.4,M,-34.1,M,,*6C
$GPRMC,205429.000,A,4123.6763,N,07357.4052,W,21.59,233.87,060417,,,A*47
$GPGGA,205430.000,4123.6727,N,07357.4118,W,1,10,0.85,48.4,M,-34.1,M,,*6B
$GPRMC,205430.000,A,4123.6727,N,07357.4118,W,22.31,236.20,060417,,,A*45
$GPGGA,205431.000,4123.6693,N,07357.4189,W,1,10,0.85,48.4,M,-34.1,M,,*6C
$GPRMC,205431.000,A,4123.6693,N,07357.4189,W,22.47,237.15,060417,,,A*44
$GPGGA,205432.000,4123.6661,N,07357.4259,W,1,10,0.85,48.3,M,-34.1,M,,*6B
$GPRMC,205432.000,A,4123.6661,N,07357.4259,W,22.10,240.05,060417,,,A*47
$GPGGA,205433.000,4123.6629,N,07357.4332,W,1,10,0.85,48.5,M,-34.1,M,,*6C
$GPRMC,205433.000,A,4123.6629,N,07357.4332,W,21.85,240.65,060417,,,A*4F
$GPGGA,205434.000,4123.6598,N,07357.4403,W,1,10,0.85,48.8,M,-34.1,M,,*6A
$GPRMC,205434.000,A,4123.6598,N,07357.4403,W,21.84,242.40,060417,,,A*40
$GPGGA,205435.000,4123.6571,N,07357.4476,W,1,09,1.08,49.3,M,-34.1,M,,*68
$GPRMC,205435.000,A,4123.6571,N,07357.4476,W,22.00,247.77,060417,,,A*4A
$GPGGA,205436.000,4123.6547,N,07357.4548,W,1,09,1.08,49.2,M,-34.1,M,,*63
$GPRMC,205436.000,A,4123.6547,N,07357.4548,W,21.97,244.74,060417,,,A*4D
$GPGGA,205437.000,4123.6523,N,07357.4619,W,1,09,1.08,48.6,M,-34.1,M,,*62
$GPRMC,205437.000,A,4123.6523,N,07357.4619,W,21.62,245.52,060417,,,A*46
$GPGGA,205438.000,4123.6497,N,07357.4690,W,1,09,1.08,48.5,M,-34.1,M,,*61
$GPRMC,205438.000,A,4123.6497,N,07357.4690,W,21.39,243.38,060417,,,A*42
$GPGGA,205439.000,4123.6471,N,07357.4757,W,1,10,0.85,48.4,M,-34.1,M,,*6F
$GPRMC,205439.000,A,4123.6471,N,07357.4757,W,20.27,242.48,060417,,,A*49
$GPGGA,205440.000,4123.6446,N,07357.4820,W,1,10,0.85,47.9,M,-34.1,M,,*68
$GPRMC,205440.000,A,4123.6446,N,07357.4820,W,20.04,242.64,060417,,,A*43
$GPGGA,205441.000,4123.6422,N,07357.4881,W,1,09,1.08,47.0,M,-34.1,M,,*65
$GPRMC,205441.000,A,4123.6422,N,07357.4881,W,19.38,244.50,060417,,,A*4F
$GPGGA,205442.000,4123.6402,N,07357.4947,W,1,09,1.08,46.5,M,-34.1,M,,*6B
$GPRMC,205442.000,A,4123.6402,N,07357.4947,W,19.34,252.64,060417,,,A*49
$GPGGA,205443.000,4123.6389,N,07357.5016,W,1,09,1.08,46.6,M,-34.1,M,,*61
$GPRMC,205443.000,A,4123.6389,N,07357.5016,W,18.56,259.55,060417,,,A*4C
$GPGGA,205444.000,4123.6382,N,07357.5082,W,1,09,1.08,46.3,M,-34.1,M,,*65
$GPRMC,205444.000,A,4123.6382,N,07357.5082,W,17.39,266.84,060417,,,A*4B
$GPGGA,205445.000,4123.6382,N,07357.5143,W,1,10,0.85,45.9,M,-34.1,M,,*6D
$GPRMC,205445.000,A,4123.6382,N,07357.5143,W,15.87,270.49,060417,,,A*47
$GPGGA,205446.000,4123.6386,N,07357.5195,W,1,10,0.85,45.2,M,-34.1,M,,*6A
$GPRMC,205446.000,A,4123.6386,N,07357.5195,W,12.56,280.29,060417,,,A*49
$GPGGA,205447.000,4123.6395,N,07357.5240,W,1,10,0.85,44.6,M,-34.1,M,,*67
$GPRMC,205447.000,A,4123.6395,N,07357.5240,W,12.73,284.28,060417,,,A*43
$GPGGA,205448.000,4123.6405,N,07357.5284,W,1,10,0.85,44.4,M,-34.1,M,,*6C
$GPRMC,205448.000,A,4123.6405,N,07357.5284,W,11.93,290.05,060417,,,A*4D
$GPGGA,205449.000,4123.6417,N,07357.5321,W,1,10,0.85,44.1,M,-34.1,M,,*65
$GPRMC,205449.000,A,4123.6417,N,07357.5321,W,10.55,296.75,060417,,,A*4B
$GPGGA,205450.000,4123.6431,N,07357.5350,W,1,10,0.85,43.5,M,-34.1,M,,*6C
$GPRMC,205450.000,A,4123.6431,N,07357.5350,W,8.06,299.90,060417,,,A*7A
$GPGGA,205451.000,4123.6441,N,07357.5373,W,1,10,0.85,43.4,M,-34.1,M,,*6A
$GPRMC,205451.000,A,4123.6441,N,07357.5373,W,6.26,293.12,060417,,,A*71
$GPGGA,205452.000,4123.6450,N,07357.5386,W,1,10,0.85,42.9,M,-34.1,M,,*6F
$GPRMC,205452.000,A,4123.6450,N,07357.5386,W,3.50,302.01,060417,,,A*77
$GPGGA,205453.000,4123.6457,N,07357.5396,W,1,10,0.82,42.8,M,-34.1,M,,*6E
$GPRMC,205453.000,A,4123.6457,N,07357.5396,W,3.56,300.56,060417,,,A*76
$GPGGA,205454.000,4123.6465,N,07357.5411,W,1,10,0.82,42.7,M,-34.1,M,,*6F
$GPRMC,205454.000,A,4123.6465,N,07357.5411,W,6.32,297.51,060417,,,A*77
$GPGGA,205455.000,4123.6477,N,07357.5434,W,1,10,0.85,42.9,M,-34.1,M,,*63
$GPRMC,205455.000,A,4123.6477,N,07357.5434,W,8.56,302.57,060417,,,A*75
$GPGGA,205456.000,4123.6497,N,07357.5463,W,1,10,0.85,42.7,M,-34.1,M,,*62
$GPRMC,205456.000,A,4123.6497,N,07357.5463,W,12.34,309.94,060417,,,A*41
$GPGGA,205457.000,4123.6522,N,07357.5497,W,1,10,0.85,43.0,M,-34.1,M,,*61
$GPRMC,205457.000,A,4123.6522,N,07357.5497,W,14.44,313.55,060417,,,A*43
$GPGGA,205458.000,4123.6553,N,07357.5536,W,1,10,0.85,43.2,M,-34.1,M,,*60
$GPRMC,205458.000,A,4123.6553,N,07357.5536,W,16.92,314.31,060417,,,A*4C
$GPGGA,205459.000,4123.6587,N,07357.5584,W,1,10,0.85,43.2,M,-34.1,M,,*61
$GPRMC,205459.000,A,4123.6587,N,07357.5584,W,18.85,312.37,060417,,,A*45
$GPGGA,205500.000,4123.6624,N,07357.5633,W,1,10,0.85,43.3,M,-34.1,M,,*68
$GPRMC,205500.000,A,4123.6624,N,07357.5633,W,19.65,317.21,060417,,,A*40
$GPGGA,205501.000,4123.6662,N,07357.5682,W,1,10,0.85,43.5,M,-34.1,M,,*67
$GPRMC,205501.000,A,4123.6662,N,07357.5682,W,19.15,314.06,060417,,,A*48
$GPGGA,205502.000,4123.6696,N,07357.5733,W,1,10,0.85,43.5,M,-34.1,M,,*64
$GPRMC,205502.000,A,4123.6696,N,07357.5733,W,19.17,308.16,060417,,,A*45
$GPGGA,205503.000,4123.6726,N,07357.5788,W,1,09,0.89,43.9,M,-34.1,M,,*67
$GPRMC,205503.000,A,4123.6726,N,07357.5788,W,18.60,302.27,060417,,,A*47
$GPGGA,205504.000,4123.6749,N,07357.5851,W,1,10,0.85,43.9,M,-34.1,M,,*66
$GPRMC,205504.000,A,4123.6749,N,07357.5851,W,18.60,293.77,060417,,,A*4E
$GPGGA,205505.000,4123.6766,N,07357.5918,W,1,09,0.89,43.9,M,-34.1,M,,*62
$GPRMC,205505.000,A,4123.6766,N,07357.5918,W,19.65,287.04,060417,,,A*4B
$GPRMC,205506.000,A,4123.6780,N,07357.5990,W,20.46,281.56,060417,,,A*4A
$GPGGA,205507.000,4123.6787,N,07357.6064,W,1,09,0.89,42.8,M,-34.1,M,,*6E
$GPRMC,205507.000,A,4123.6787,N,07357.6064,W,20.91,274.79,060417,,,A*40
$GPRMC,205508.000,A,4123.6788,N,07357.6144,W,21.83,272.28,060417,,,A*43
$GPGGA,205509.000,4123.6788,N,07357.6228,W,1,08,1.10,43.4,M,-34.1,M,,*68
$GPRMC,205509.000,A,4123.6788,N,07357.6228,W,22.57,271.89,060417,,,A*49
$GPGGA,205510.000,4123.6788,N,07357.6313,W,1,08,1.10,43.4,M,-34.1,M,,*69
$GPRMC,205510.000,A,4123.6788,N,07357.6313,W,23.00,270.06,060417,,,A*4D
$GPGGA,205511.000,4123.6788,N,07357.6399,W,1,08,1.10,43.5,M,-34.1,M,,*6B
$GPRMC,205511.000,A,4123.6788,N,07357.6399,W,23.43,270.67,060417,,,A*4E
$GPGGA,205512.000,4123.6789,N,07357.6483,W,1,09,0.89,43.3,M,-34.1,M,,*63
$GPRMC,205512.000,A,4123.6789,N,07357.6483,W,23.27,270.42,060417,,,A*45
$GPGGA,205513.000,4123.6789,N,07357.6567,W,1,09,0.89,43.5,M,-34.1,M,,*6F
$GPRMC,205513.000,A,4123.6789,N,07357.6567,W,22.58,269.69,060417,,,A*47
$GPGGA,205514.000,4123.6789,N,07357.6648,W,1,09,0.89,43.3,M,-34.1,M,,*60
$GPRMC,205514.000,A,4123.6789,N,07357.6648,W,22.57,270.38,060417,,,A*4D
$GPGGA,205515.000,4123.6788,N,07357.6729,W,1,09,0.89,43.1,M,-34.1,M,,*64
$GPRMC,205515.000,A,4123.6788,N,07357.6729,W,21.45,269.42,060417,,,A*4E
$GPGGA,205516.000,4123.6787,N,07357.6807,W,1,09,0.89,43.2,M,-34.1,M,,*68
$GPRMC,205516.000,A,4123.6787,N,07357.6807,W,20.81,269.38,060417,,,A*45
$GPGGA,205517.000,4123.6787,N,07357.6885,W,1,09,0.89,43.3,M,-34.1,M,,*62
$GPRMC,205517.000,A,4123.6787,N,07357.6885,W,21.03,270.06,060417,,,A*40
$GPGGA,205518.000,4123.6788,N,07357.6961,W,1,09,0.89,43.2,M,-34.1,M,,*68
$GPRMC,205518.000,A,4123.6788,N,07357.6961,W,20.55,273.22,060417,,,A*4C
$GPGGA,205519.000,4123.6791,N,07357.7034,W,1,09,0.89,43.2,M,-34.1,M,,*69
$GPRMC,205519.000,A,4123.6791,N,07357.7034,W,19.54,270.57,060417,,,A*47
$GPGGA,205520.000,4123.6791,N,07357.7100,W,1,09,0.89,43.1,M,-34.1,M,,*66
$GPRMC,205520.000,A,4123.6791,N,07357.7100,W,16.94,270.59,060417,,,A*46
$GPGGA,205521.000,4123.6794,N,07357.7155,W,1,09,0.89,43.2,M,-34.1,M,,*61
$GPRMC,205521.000,A,4123.6794,N,07357.7155,W,13.71,271.93,060417,,,A*4B
$GPGGA,205522.000,4123.6796,N,07357.7200,W,1,09,0.89,43.2,M,-34.1,M,,*63
$GPRMC,205522.000,A,4123.6796,N,07357.7200,W,11.71,274.64,060417,,,A*46
$GPGGA,205523.000,4123.6802,N,07357.7241,W,1,09,0.89,43.1,M,-34.1,M,,*66
$GPRMC,205523.000,A,4123.6802,N,07357.7241,W,10.95,279.65,060417,,,A*47
$GPGGA,205524.000,4123.6807,N,07357.7277,W,1,09,0.89,43.2,M,-34.1,M,,*62
$GPRMC,205524.000,A,4123.6807,N,07357.7277,W,9.13,282.03,060417,,,A*72
$GPGGA,205525.000,4123.6818,N,07357.7346,W,1,09,0.87,40.2,M,-34.1,M,,*63
$GPRMC,205525.000,A,4123.6818,N,07357.7346,W,5.61,296.85,060417,,,A*7C
$GPGGA,205526.000,4123.6804,N,07357.7396,W,1,09,0.87,46.9,M,-34.1,M,,*6D
$GPRMC,205526.000,A,4123.6804,N,07357.7396,W,3.73,308.19,060417,,,A*79
$GPGGA,205527.000,4123.6806,N,07357.7420,W,1,09,0.87,48.6,M,-34.1,M,,*65
$GPRMC,205527.000,A,4123.6806,N,07357.7420,W,4.15,304.29,060417,,,A*78
$GPGGA,205528.000,4123.6814,N,07357.7442,W,1,09,0.89,49.4,M,-34.1,M,,*60
$GPRMC,205528.000,A,4123.6814,N,07357.7442,W,6.56,291.54,060417,,,A*72
$GPGGA,205529.000,4123.6816,N,07357.7466,W,1,09,0.87,49.3,M,-34.1,M,,*6C
$GPRMC,205529.000,A,4123.6816,N,07357.7466,W,7.06,270.52,060417,,,A*7A
$GPGGA,205530.000,4123.6812,N,07357.7493,W,1,09,0.87,49.2,M,-34.1,M,,*6B
$GPRMC,205530.000,A,4123.6812,N,07357.7493,W,7.75,248.08,060417,,,A*7C
$GPGGA,205531.000,4123.6799,N,07357.7515,W,1,09,0.87,49.0,M,-34.1,M,,*6B
$GPRMC,205531.000,A,4123.6799,N,07357.7515,W,7.94,226.58,060417,,,A*7C
$GPGGA,205532.000,4123.6778,N,07357.7532,W,1,09,0.89,49.4,M,-34.1,M,,*68
$GPRMC,205532.000,A,4123.6778,N,07357.7532,W,8.37,206.77,060417,,,A*7C
$GPGGA,205533.000,4123.6756,N,07357.7540,W,1,09,0.87,49.8,M,-34.1,M,,*62
$GPRMC,205533.000,A,4123.6756,N,07357.7540,W,8.61,186.09,060417,,,A*75
$GPGGA,205534.000,4123.6728,N,07357.7538,W,1,08,1.01,50.6,M,-34.1,M,,*6B
$GPRMC,205534.000,A,4123.6728,N,07357.7538,W,9.91,175.60,060417,,,A*79
$GPGGA,205535.000,4123.6698,N,07357.7535,W,1,08,1.01,51.8,M,-34.1,M,,*62
$GPRMC,205535.000,A,4123.6698,N,07357.7535,W,11.45,174.60,060417,,,A*4E
$GPGGA,205536.000,4123.6662,N,07357.7532,W,1,08,1.01,53.3,M,-34.1,M,,*6A
$GPRMC,205536.000,A,4123.6662,N,07357.7532,W,13.59,173.60,060417,,,A*47
$GPGGA,205537.000,4123.6622,N,07357.7526,W,1,08,1.01,54.1,M,-34.1,M,,*6F
$GPRMC,205537.000,A,4123.6622,N,07357.7526,W,15.32,174.20,060417,,,A*4F
$GPGGA,205538.000,4123.6578,N,07357.7516,W,1,08,1.01,54.9,M,-34.1,M,,*67
$GPRMC,205538.000,A,4123.6578,N,07357.7516,W,17.01,166.86,060417,,,A*42
$GPGGA,205539.000,4123.6530,N,07357.7500,W,1,08,1.01,55.7,M,-34.1,M,,*62
$GPRMC,205539.000,A,4123.6530,N,07357.7500,W,18.73,163.54,060417,,,A*48
$GPGGA,205540.000,4123.6479,N,07357.7481,W,1,08,0.97,56.6,M,-34.1,M,,*64
$GPRMC,205540.000,A,4123.6479,N,07357.7481,W,19.79,164.29,060417,,,A*44
$GPGGA,205541.000,4123.6428,N,07357.7459,W,1,08,1.01,57.2,M,-34.1,M,,*6F
$GPRMC,205541.000,A,4123.6428,N,07357.7459,W,19.50,162.03,060417,,,A*41
$GPGGA,205542.000,4123.6377,N,07357.7435,W,1,08,1.01,58.2,M,-34.1,M,,*64
$GPRMC,205542.000,A,4123.6377,N,07357.7435,W,19.85,156.55,060417,,,A*49
$GPGGA,205543.000,4123.6325,N,07357.7405,W,1,08,0.97,58.8,M,-34.1,M,,*65
$GPRMC,205543.000,A,4123.6325,N,07357.7405,W,20.49,157.03,060417,,,A*44
$GPGGA,205544.000,4123.6269,N,07357.7374,W,1,08,1.01,60.1,M,-34.1,M,,*66
$GPRMC,205544.000,A,4123.6269,N,07357.7374,W,21.07,155.48,060417,,,A*4D
$GPGGA,205545.000,4123.6215,N,07357.7342,W,1,08,1.01,61.1,M,-34.1,M,,*68
$GPRMC,205545.000,A,4123.6215,N,07357.7342,W,21.10,155.28,060417,,,A*42
$GPGGA,205546.000,4123.6159,N,07357.7307,W,1,08,1.01,61.7,M,-34.1,M,,*67
$GPRMC,205546.000,A,4123.6159,N,07357.7307,W,22.45,154.49,060417,,,A*4E
$GPGGA,205547.000,4123.6102,N,07357.7269,W,1,08,1.01,62.3,M,-34.1,M,,*66
$GPRMC,205547.000,A,4123.6102,N,07357.7269,W,22.20,154.75,060417,,,A*44
$GPGGA,205548.000,4123.6046,N,07357.7234,W,1,08,1.01,62.9,M,-34.1,M,,*6A
$GPRMC,205548.000,A,4123.6046,N,07357.7234,W,22.72,154.95,060417,,,A*4B
$GPGGA,205549.000,4123.5987,N,07357.7197,W,1,08,1.01,64.1,M,-34.1,M,,*68
$GPRMC,205549.000,A,4123.5987,N,07357.7197,W,23.89,154.99,060417,,,A*4E
$GPGGA,205550.000,4123.5926,N,07357.7159,W,1,08,1.01,65.0,M,-34.1,M,,*69
$GPRMC,205550.000,A,4123.5926,N,07357.7159,W,23.83,155.50,060417,,,A*41
$GPGGA,205551.000,4123.5865,N,07357.7119,W,1,08,1.01,66.7,M,-34.1,M,,*6E
$GPRMC,205551.000,A,4123.5865,N,07357.7119,W,23.62,153.22,060417,,,A*4E
$GPGGA,205552.000,4123.5804,N,07357.7079,W,1,08,1.01,67.8,M,-34.1,M,,*63
$GPRMC,205552.000,A,4123.5804,N,07357.7079,W,24.82,154.43,060417,,,A*44
$GPGGA,205553.000,4123.5741,N,07357.7043,W,1,08,1.01,69.6,M,-34.1,M,,*65
$GPRMC,205553.000,A,4123.5741,N,07357.7043,W,23.84,158.10,060417,,,A*49
$GPGGA,205554.000,4123.5679,N,07357.7012,W,1,08,1.01,70.9,M,-34.1,M,,*6B
$GPRMC,205554.000,A,4123.5679,N,07357.7012,W,23.17,160.22,060417,,,A*40
$GPGGA,205555.000,4123.5617,N,07357.6983,W,1,08,1.01,72.6,M,-34.1,M,,*6F
$GPRMC,205555.000,A,4123.5617,N,07357.6983,W,23.66,161.38,060417,,,A*45
$GPGGA,205556.000,4123.5554,N,07357.6955,W,1,09,0.89,73.7,M,-34.1,M,,*63
$GPRMC,205556.000,A,4123.5554,N,07357.6955,W,23.24,161.79,060417,,,A*4A
$GPGGA,205557.000,4123.5491,N,07357.6930,W,1,09,0.89,75.2,M,-34.1,M,,*6A
$GPRMC,205557.000,A,4123.5491,N,07357.6930,W,23.32,164.69,060417,,,A*43
$GPGGA,205558.000,4123.5428,N,07357.6909,W,1,09,0.89,76.5,M,-34.1,M,,*69
$GPRMC,205558.000,A,4123.5428,N,07357.6909,W,22.99,167.11,060417,,,A*48
$GPGGA,205559.000,4123.5364,N,07357.6891,W,1,08,1.01,78.2,M,-34.1,M,,*6E
$GPRMC,205559.000,A,4123.5364,N,07357.6891,W,23.38,168.99,060417,,,A*43
$GPGGA,205600.000,4123.5298,N,07357.6876,W,1,08,1.01,79.7,M,-34.1,M,,*6E
$GPRMC,205600.000,A,4123.5298,N,07357.6876,W,24.37,170.80,060417,,,A*4E
$GPGGA,205601.000,4123.5223,N,07357.6860,W,1,08,1.01,80.3,M,-34.1,M,,*6A
$GPRMC,205601.000,A,4123.5223,N,07357.6860,W,24.39,173.39,060417,,,A*47
$GPGGA,205602.000,4123.5152,N,07357.6848,W,1,08,1.01,81.4,M,-34.1,M,,*60
$GPRMC,205602.000,A,4123.5152,N,07357.6848,W,24.33,173.86,060417,,,A*45
$GPGGA,205603.000,4123.5081,N,07357.6840,W,1,08,1.01,82.6,M,-34.1,M,,*67
$GPRMC,205603.000,A,4123.5081,N,07357.6840,W,24.68,177.19,060417,,,A*4F
$GPGGA,205604.000,4123.5010,N,07357.6834,W,1,08,1.01,84.0,M,-34.1,M,,*6B
$GPRMC,205604.000,A,4123.5010,N,07357.6834,W,24.43,176.57,060417,,,A*41
$GPGGA,205605.000,4123.4941,N,07357.6827,W,1,08,1.01,85.2,M,-34.1,M,,*67
$GPRMC,205605.000,A,4123.4941,N,07357.6827,W,24.46,177.22,060417,,,A*48
$GPGGA,205606.000,4123.4871,N,07357.6822,W,1,09,0.99,86.3,M,-34.1,M,,*60
$GPRMC,205606.000,A,4123.4871,N,07357.6822,W,24.67,176.94,060417,,,A*43
$GPGGA,205607.000,4123.4802,N,07357.6818,W,1,09,0.99,87.8,M,-34.1,M,,*66
$GPRMC,205607.000,A,4123.4802,N,07357.6818,W,24.71,177.95,060417,,,A*48
$GPGGA,205608.000,4123.4732,N,07357.6816,W,1,09,0.99,89.1,M,-34.1,M,,*6C
$GPRMC,205608.000,A,4123.4732,N,07357.6816,W,24.67,179.38,060417,,,A*4B
$GPGGA,205609.000,4123.4663,N,07357.6819,W,1,09,0.99,90.2,M,-34.1,M,,*6C
$GPRMC,205609.000,A,4123.4663,N,07357.6819,W,24.89,183.57,060417,,,A*4C
$GPGGA,205610.000,4123.4594,N,07357.6819,W,1,09,0.93,89.9,M,-34.1,M,,*66
$GPRMC,205610.000,A,4123.4594,N,07357.6819,W,25.46,180.04,060417,,,A*48
$GPGGA,205611.000,4123.4523,N,07357.6816,W,1,09,0.99,91.0,M,-34.1,M,,*6E
$GPRMC,205611.000,A,4123.4523,N,07357.6816,W,25.22,177.21,060417,,,A*47
$GPGGA,205612.000,4123.4452,N,07357.6812,W,1,09,0.99,92.1,M,-34.1,M,,*6C
$GPRMC,205612.000,A,4123.4452,N,07357.6812,W,25.65,180.28,060417,,,A*45
$GPGGA,205613.000,4123.4379,N,07357.6810,W,1,09,0.99,93.2,M,-34.1,M,,*63
$GPRMC,205613.000,A,4123.4379,N,07357.6810,W,26.05,179.99,060417,,,A*41
$GPGGA,205614.000,4123.4306,N,07357.6810,W,1,09,0.99,94.4,M,-34.1,M,,*6D
$GPRMC,205614.000,A,4123.4306,N,07357.6810,W,25.87,180.41,060417,,,A*44
$GPGGA,205615.000,4123.4235,N,07357.6812,W,1,09,0.99,95.6,M,-34.1,M,,*6C
$GPRMC,205615.000,A,4123.4235,N,07357.6812,W,25.34,180.19,060417,,,A*43
$GPGGA,205616.000,4123.4162,N,07357.6811,W,1,09,0.99,96.3,M,-34.1,M,,*6B
$GPRMC,205616.000,A,4123.4162,N,07357.6811,W,24.76,178.10,060417,,,A*4B
$GPGGA,205617.000,4123.4092,N,07357.6808,W,1,09,0.99,97.6,M,-34.1,M,,*68
$GPRMC,205617.000,A,4123.4092,N,07357.6808,W,23.83,178.04,060417,,,A*44
$GPGGA,205618.000,4123.4028,N,07357.6809,W,1,09,0.99,98.0,M,-34.1,M,,*6E
$GPRMC,205618.000,A,4123.4028,N,07357.6809,W,21.61,182.67,060417,,,A*45
$GPGGA,205619.000,4123.3970,N,07357.6810,W,1,09,0.99,97.7,M,-34.1,M,,*6C
$GPRMC,205619.000,A,4123.3970,N,07357.6810,W,20.39,181.20,060417,,,A*43
$GPGGA,205620.000,4123.3919,N,07357.6813,W,1,09,0.99,97.1,M,-34.1,M,,*6C
$GPRMC,205620.000,A,4123.3919,N,07357.6813,W,18.51,183.46,060417,,,A*42
$GPGGA,205621.000,4123.3872,N,07357.6817,W,1,09,0.99,97.5,M,-34.1,M,,*61
$GPRMC,205621.000,A,4123.3872,N,07357.6817,W,16.24,181.65,060417,,,A*44
$GPGGA,205622.000,4123.3830,N,07357.6821,W,1,09,0.99,98.4,M,-34.1,M,,*6F
$GPRMC,205622.000,A,4123.3830,N,07357.6821,W,15.15,185.24,060417,,,A*44
$GPGGA,205623.000,4123.3793,N,07357.6833,W,1,09,0.99,99.3,M,-34.1,M,,*6D
$GPRMC,205623.000,A,4123.3793,N,07357.6833,W,13.77,198.32,060417,,,A*49
$GPGGA,205624.000,4123.3758,N,07357.6860,W,1,10,0.85,100.2,M,-34.1,M,,*5E
$GPRMC,205624.000,A,4123.3758,N,07357.6860,W,15.03,214.94,060417,,,A*41
$GPGGA,205625.000,4123.3730,N,07357.6902,W,1,10,0.85,100.3,M,-34.1,M,,*55
$GPRMC,205625.000,A,4123.3730,N,07357.6902,W,15.60,235.12,060417,,,A*43
$GPGGA,205626.000,4123.3710,N,07357.6955,W,1,10,0.85,100.5,M,-34.1,M,,*50
$GPRMC,205626.000,A,4123.3710,N,07357.6955,W,16.48,245.27,060417,,,A*48
$GPGGA,205627.000,4123.3695,N,07357.7017,W,1,10,0.85,100.7,M,-34.1,M,,*51
$GPRMC,205627.000,A,4123.3695,N,07357.7017,W,19.64,254.29,060417,,,A*44
$GPGGA,205628.000,4123.3685,N,07357.7088,W,1,10,0.85,100.7,M,-34.1,M,,*59
$GPRMC,205628.000,A,4123.3685,N,07357.7088,W,19.99,259.90,060417,,,A*41
$GPGGA,205629.000,4123.3679,N,07357.7162,W,1,10,0.85,100.8,M,-34.1,M,,*51
$GPRMC,205629.000,A,4123.3679,N,07357.7162,W,20.23,262.63,060417,,,A*49
$GPGGA,205630.000,4123.3672,N,07357.7238,W,1,10,0.85,101.2,M,-34.1,M,,*55
$GPRMC,205630.000,A,4123.3672,N,07357.7238,W,21.07,263.18,060417,,,A*4C
$GPGGA,205631.000,4123.3667,N,07357.7315,W,2,10,0.85,101.6,M,-34.1,M,0000,0000*59
$GPRMC,205631.000,A,4123.3667,N,07357.7315,W,21.51,265.34,060417,,,D*49
$GPGGA,205632.000,4123.3660,N,07357.7395,W,2,10,0.85,101.8,M,-34.1,M,0000,0000*5B
$GPRMC,205632.000,A,4123.3660,N,07357.7395,W,22.07,261.45,060417,,,D*47
$GPGGA,205633.000,4123.3649,N,07357.7475,W,2,10,0.85,102.0,M,-34.1,M,0000,0000*53
$GPRMC,205633.000,A,4123.3649,N,07357.7475,W,22.12,255.91,060417,,,D*4E
$GPGGA,205634.000,4123.3633,N,07357.7554,W,2,10,0.85,102.0,M,-34.1,M,0000,0000*5B
$GPRMC,205634.000,A,4123.3633,N,07357.7554,W,22.59,252.04,060417,,,D*42
$GPGGA,205635.000,4123.3610,N,07357.7632,W,2,10,0.82,102.3,M,-34.1,M,0000,0000*5C
$GPRMC,205635.000,A,4123.3610,N,07357.7632,W,22.93,245.54,060417,,,D*44
$GPGGA,205636.000,4123.3580,N,07357.7705,W,2,10,0.82,102.5,M,-34.1,M,0000,0000*56
$GPRMC,205636.000,A,4123.3580,N,07357.7705,W,23.14,239.04,060417,,,D*48
$GPGGA,205637.000,4123.3546,N,07357.7775,W,2,10,0.85,102.8,M,-34.1,M,0000,0000*50
$GPRMC,205637.000,A,4123.3546,N,07357.7775,W,23.20,233.80,060417,,,D*45
$GPGGA,205638.000,4123.3508,N,07357.7841,W,2,10,0.85,103.4,M,-34.1,M,0000,0000*50
$GPRMC,205638.000,A,4123.3508,N,07357.7841,W,23.15,229.42,060417,,,D*4B
$GPGGA,205639.000,4123.3465,N,07357.7905,W,2,10,0.85,104.1,M,-34.1,M,0000,0000*58
$GPRMC,205639.000,A,4123.3465,N,07357.7905,W,23.23,227.57,060417,,,D*4E
$GPGGA,205640.000,4123.3422,N,07357.7968,W,2,10,0.85,104.9,M,-34.1,M,0000,0000*56
$GPRMC,205640.000,A,4123.3422,N,07357.7968,W,23.04,226.96,060417,,,D*41
$GPGGA,205641.000,4123.3379,N,07357.8029,W,2,10,0.85,105.7,M,-34.1,M,0000,0000*52
$GPRMC,205641.000,A,4123.3379,N,07357.8029,W,22.51,226.72,060417,,,D*41
$GPGGA,205642.000,4123.3338,N,07357.8091,W,2,10,0.85,106.6,M,-34.1,M,0000,0000*55
$GPRMC,205642.000,A,4123.3338,N,07357.8091,W,22.57,230.38,060417,,,D*4B
$GPGGA,205643.000,4123.3302,N,07357.8159,W,2,10,0.85,108.1,M,-34.1,M,0000,0000*51
$GPRMC,205643.000,A,4123.3302,N,07357.8159,W,22.79,238.81,060417,,,D*40
$GPGGA,205644.000,4123.3272,N,07357.8232,W,2,10,0.85,109.6,M,-34.1,M,0000,0000*58
$GPRMC,205644.000,A,4123.3272,N,07357.8232,W,21.75,243.56,060417,,,D*46
$GPGGA,205645.000,4123.3250,N,07357.8305,W,2,10,0.85,111.1,M,-34.1,M,0000,0000*52
$GPRMC,205645.000,A,4123.3250,N,07357.8305,W,21.47,252.07,060417,,,D*47
$GPGGA,205646.000,4123.3237,N,07357.8384,W,2,10,0.85,112.4,M,-34.1,M,0000,0000*5F
$GPRMC,205646.000,A,4123.3237,N,07357.8384,W,21.71,261.23,060417,,,D*4F
$GPGGA,205647.000,4123.3233,N,07357.8465,W,2,10,0.85,113.6,M,-34.1,M,0000,0000*51
$GPRMC,205647.000,A,4123.3233,N,07357.8465,W,22.14,267.79,060417,,,D*4B
$GPGGA,205648.000,4123.3233,N,07357.8547,W,2,10,0.85,114.8,M,-34.1,M,0000,0000*56
$GPRMC,205648.000,A,4123.3233,N,07357.8547,W,21.95,270.80,060417,,,D*4F
$GPGGA,205649.000,4123.3235,N,07357.8627,W,2,10,0.85,115.8,M,-34.1,M,0000,0000*55
$GPRMC,205649.000,A,4123.3235,N,07357.8627,W,21.68,271.36,060417,,,D*43
$GPGGA,205650.000,4123.3237,N,07357.8708,W,2,10,0.85,117.4,M,-34.1,M,0000,0000*5D
$GPRMC,205650.000,A,4123.3237,N,07357.8708,W,21.74,271.51,060417,,,D*49
$GPGGA,205651.000,4123.3240,N,07357.8788,W,2,10,0.85,118.5,M,-34.1,M,0000,0000*5A
$GPRMC,205651.000,A,4123.3240,N,07357.8788,W,21.01,272.27,060417,,,D*40
$GPGGA,205652.000,4123.3245,N,07357.8864,W,2,10,0.85,119.4,M,-34.1,M,0000,0000*51
$GPRMC,205652.000,A,4123.3245,N,07357.8864,W,20.09,275.52,060417,,,D*47
$GPGGA,205653.000,4123.3253,N,07357.8936,W,2,10,0.85,120.5,M,-34.1,M,0000,0000*5A
$GPRMC,205653.000,A,4123.3253,N,07357.8936,W,18.92,279.98,060417,,,D*44
$GPGGA,205654.000,4123.3264,N,07357.9003,W,2,10,0.85,121.3,M,-34.1,M,0000,0000*50
$GPRMC,205654.000,A,4123.3264,N,07357.9003,W,18.45,284.73,060417,,,D*44
$GPGGA,205655.000,4123.3281,N,07357.9069,W,2,10,0.85,122.0,M,-34.1,M,0000,0000*56
$GPRMC,205655.000,A,4123.3281,N,07357.9069,W,19.24,290.78,060417,,,D*4A
$GPGGA,205656.000,4123.3302,N,07357.9135,W,2,10,0.85,123.8,M,-34.1,M,0000,0000*5E
$GPRMC,205656.000,A,4123.3302,N,07357.9135,W,19.63,295.27,060417,,,D*47
$GPGGA,205657.000,4123.3328,N,07357.9200,W,2,10,0.85,125.2,M,-34.1,M,0000,0000*5E
$GPRMC,205657.000,A,4123.3328,N,07357.9200,W,20.64,300.89,060417,,,D*4F
$GPGGA,205658.000,4123.3360,N,07357.9264,W,2,10,0.85,126.5,M,-34.1,M,0000,0000*5B
$GPRMC,205658.000,A,4123.3360,N,07357.9264,W,21.31,305.20,060417,,,D*49
$GPGGA,205659.000,4123.3397,N,07357.9325,W,2,10,0.85,127.8,M,-34.1,M,0000,0000*5A
$GPRMC,205659.000,A,4123.3397,N,07357.9325,W,21.85,310.85,060417,,,D*40
$GPGGA,205700.000,4123.3439,N,07357.9387,W,2,10,0.85,128.7,M,-34.1,M,0000,0000*5C
$GPRMC,205700.000,A,4123.3439,N,07357.9387,W,23.11,312.73,060417,,,D*42
$GPGGA,205701.000,4123.3483,N,07357.9451,W,2,10,0.85,130.1,M,-34.1,M,0000,0000*5F
$GPRMC,205701.000,A,4123.3483,N,07357.9451,W,24.05,312.28,060417,,,D*42
$GPGGA,205702.000,4123.3530,N,07357.9515,W,2,10,0.85,131.5,M,-34.1,M,0000,0000*51
$GPRMC,205702.000,A,4123.3530,N,07357.9515,W,24.53,315.06,060417,,,D*41
$GPGGA,205703.000,4123.3577,N,07357.9579,W,2,10,0.85,132.8,M,-34.1,M,0000,0000*57
$GPRMC,205703.000,A,4123.3577,N,07357.9579,W,24.57,312.72,060417,,,D*49
$GPGGA,205704.000,4123.3624,N,07357.9646,W,2,10,0.85,134.1,M,-34.1,M,0000,0000*55
$GPRMC,205704.000,A,4123.3624,N,07357.9646,W,25.09,311.70,060417,,,D*4F
$GPGGA,205705.000,4123.3673,N,07357.9710,W,2,10,0.85,135.3,M,-34.1,M,0000,0000*57
$GPRMC,205705.000,A,4123.3673,N,07357.9710,W,25.16,315.57,060417,,,D*41
$GPGGA,205706.000,4123.3724,N,07357.9775,W,2,10,0.85,136.7,M,-34.1,M,0000,0000*53
$GPRMC,205706.000,A,4123.3724,N,07357.9775,W,25.17,314.56,060417,,,D*43
$GPGGA,205707.000,4123.3773,N,07357.9842,W,2,10,0.85,137.9,M,-34.1,M,0000,0000*54
$GPRMC,205707.000,A,4123.3773,N,07357.9842,W,25.45,314.36,060417,,,D*4A
$GPGGA,205708.000,4123.3822,N,07357.9910,W,2,10,0.85,138.6,M,-34.1,M,0000,0000*56
$GPRMC,205708.000,A,4123.3822,N,07357.9910,W,25.75,311.70,060417,,,D*4C
$GPGGA,205709.000,4123.3869,N,07357.9978,W,2,10,0.85,139.2,M,-34.1,M,0000,0000*53
$GPRMC,205709.000,A,4123.3869,N,07357.9978,W,24.65,310.63,060417,,,D*4F
$GPGGA,205710.000,4123.3910,N,07358.0048,W,2,10,0.85,140.3,M,-34.1,M,0000,0000*57
$GPRMC,205710.000,A,4123.3910,N,07358.0048,W,23.69,304.89,060417,,,D*4E
$GPGGA,205711.000,4123.3942,N,07358.0124,W,2,10,0.85,141.2,M,-34.1,M,0000,0000*5A
$GPRMC,205711.000,A,4123.3942,N,07358.0124,W,22.97,295.70,060417,,,D*4C
$GPGGA,205712.000,4123.3967,N,07358.0201,W,2,10,0.85,142.2,M,-34.1,M,0000,0000*59
$GPRMC,205712.000,A,4123.3967,N,07358.0201,W,22.94,291.65,060417,,,D*4F
$GPGGA,205713.000,4123.3988,N,07358.0280,W,2,10,0.85,143.0,M,-34.1,M,0000,0000*53
$GPRMC,205713.000,A,4123.3988,N,07358.0280,W,22.71,286.04,060417,,,D*4C
$GPGGA,205714.000,4123.4002,N,07358.0363,W,2,10,0.85,144.1,M,-34.1,M,0000,0000*52
$GPRMC,205714.000,A,4123.4002,N,07358.0363,W,23.25,279.67,060417,,,D*4E
$GPGGA,205715.000,4123.4007,N,07358.0448,W,2,10,0.85,145.7,M,-34.1,M,0000,0000*5F
$GPRMC,205715.000,A,4123.4007,N,07358.0448,W,23.25,272.64,060417,,,D*4C
$GPGGA,205716.000,4123.4006,N,07358.0533,W,2,10,0.85,146.8,M,-34.1,M,0000,0000*5C
$GPRMC,205716.000,A,4123.4006,N,07358.0533,W,23.21,267.89,060417,,,D*40
$GPGGA,205717.000,4123.3997,N,07358.0618,W,2,10,0.85,147.8,M,-34.1,M,0000,0000*50
$GPRMC,205717.000,A,4123.3997,N,07358.0618,W,23.26,257.37,060417,,,D*4C
$GPGGA,205718.000,4123.3977,N,07358.0698,W,2,10,0.85,149.1,M,-34.1,M,0000,0000*5E
$GPRMC,205718.000,A,4123.3977,N,07358.0698,W,22.62,246.71,060417,,,D*46
$GPGGA,205719.000,4123.3946,N,07358.0772,W,2,10,0.85,150.6,M,-34.1,M,0000,0000*57
$GPRMC,205719.000,A,4123.3946,N,07358.0772,W,22.58,239.49,060417,,,D*4A
$GPGGA,205720.000,4123.3909,N,07358.0837,W,2,10,0.85,152.0,M,-34.1,M,0000,0000*5C
$GPRMC,205720.000,A,4123.3909,N,07358.0837,W,21.92,228.06,060417,,,D*4B
$GPGGA,205721.000,4123.3864,N,07358.0895,W,2,10,0.85,153.3,M,-34.1,M,0000,0000*5D
$GPRMC,205721.000,A,4123.3864,N,07358.0895,W,22.00,221.33,060417,,,D*4F
$GPGGA,205722.000,4123.3815,N,07358.0944,W,2,10,0.85,154.4,M,-34.1,M,0000,0000*55
$GPRMC,205722.000,A,4123.3815,N,07358.0944,W,21.96,214.34,060417,,,D*4A
$GPGGA,205723.000,4123.3762,N,07358.0988,W,2,10,0.85,155.6,M,-34.1,M,0000,0000*58
$GPRMC,205723.000,A,4123.3762,N,07358.0988,W,22.19,211.18,060417,,,D*4B
$GPGGA,205724.000,4123.3709,N,07358.1027,W,2,10,0.85,156.8,M,-34.1,M,0000,0000*52
$GPRMC,205724.000,A,4123.3709,N,07358.1027,W,21.82,208.87,060417,,,D*43
$GPGGA,205725.000,4123.3656,N,07358.1065,W,2,10,0.85,157.9,M,-34.1,M,0000,0000*5E
$GPRMC,205725.000,A,4123.3656,N,07358.1065,W,21.29,207.76,060417,,,D*4F
$GPGGA,205726.000,4123.3601,N,07358.1098,W,2,10,0.85,159.3,M,-34.1,M,0000,0000*59
$GPRMC,205726.000,A,4123.3601,N,07358.1098,W,21.55,204.39,060417,,,D*4F
$GPGGA,205727.000,4123.3546,N,07358.1129,W,2,10,0.85,160.2,M,-34.1,M,0000,0000*58
$GPRMC,205727.000,A,4123.3546,N,07358.1129,W,21.38,202.37,060417,,,D*46
$GPGGA,205728.000,4123.3491,N,07358.1160,W,2,10,0.85,161.3,M,-34.1,M,0000,0000*51
$GPRMC,205728.000,A,4123.3491,N,07358.1160,W,21.02,203.72,060417,,,D*46
$GPGGA,205729.000,4123.3435,N,07358.1190,W,2,10,0.85,162.6,M,-34.1,M,0000,0000*57
$GPRMC,205729.000,A,4123.3435,N,07358.1190,W,20.81,201.79,060417,,,D*45
$GPGGA,205730.000,4123.3382,N,07358.1217,W,2,09,0.99,163.7,M,-34.1,M,0000,0000*5D
$GPRMC,205730.000,A,4123.3382,N,07358.1217,W,20.15,201.49,060417,,,D*44
$GPGGA,205731.000,4123.3328,N,07358.1244,W,2,09,0.99,164.6,M,-34.1,M,0000,0000*5C
$GPRMC,205731.000,A,4123.3328,N,07358.1244,W,20.35,199.93,060417,,,D*44
$GPGGA,205732.000,4123.3276,N,07358.1269,W,2,09,0.99,165.5,M,-34.1,M,0000,0000*58
$GPRMC,205732.000,A,4123.3276,N,07358.1269,W,20.02,199.33,060417,,,D*4C
$GPGGA,205733.000,4123.3222,N,07358.1293,W,2,10,0.85,166.8,M,-34.1,M,0000,0000*56
$GPRMC,205733.000,A,4123.3222,N,07358.1293,W,20.23,197.80,060417,,,D*4C
$GPGGA,205734.000,4123.3168,N,07358.1317,W,2,10,0.85,167.7,M,-34.1,M,0000,0000*5F
$GPRMC,205734.000,A,4123.3168,N,07358.1317,W,20.27,198.83,060417,,,D*43
$GPGGA,205735.000,4123.3114,N,07358.1340,W,2,10,0.85,168.6,M,-34.1,M,0000,0000*59
$GPRMC,205735.000,A,4123.3114,N,07358.1340,W,20.30,196.90,060417,,,D*41
$GPGGA,205736.000,4123.3061,N,07358.1362,W,2,10,0.85,169.1,M,-34.1,M,0000,0000*5F
$GPRMC,205736.000,A,4123.3061,N,07358.1362,W,19.75,196.93,060417,,,D*49
$GPGGA,205737.000,4123.3006,N,07358.1382,W,2,10,0.85,170.0,M,-34.1,M,0000,0000*58
$GPRMC,205737.000,A,4123.3006,N,07358.1382,W,20.20,193.38,060417,,,D*49
$GPGGA,205738.000,4123.2951,N,07358.1400,W,2,09,0.99,170.5,M,-34.1,M,0000,0000*50
$GPRMC,205738.000,A,4123.2951,N,07358.1400,W,20.37,194.71,060417,,,D*4D
$GPGGA,205739.000,4123.2897,N,07358.1419,W,2,09,0.99,170.9,M,-34.1,M,0000,0000*5E
$GPRMC,205739.000,A,4123.2897,N,07358.1419,W,19.90,193.79,060417,,,D*47
$GPGGA,205740.000,4123.2843,N,07358.1435,W,2,09,0.99,171.5,M,-34.1,M,0000,0000*5A
$GPRMC,205740.000,A,4123.2843,N,07358.1435,W,19.74,192.48,060417,,,D*47
$GPGGA,205741.000,4123.2790,N,07358.1449,W,2,09,0.99,172.0,M,-34.1,M,0000,0000*57
$GPRMC,205741.000,A,4123.2790,N,07358.1449,W,19.94,191.20,060417,,,D*4F
$GPGGA,205742.000,4123.2737,N,07358.1463,W,2,09,0.99,172.7,M,-34.1,M,0000,0000*56
$GPRMC,205742.000,A,4123.2737,N,07358.1463,W,20.19,191.33,060417,,,D*44
$GPGGA,205743.000,4123.2682,N,07358.1477,W,2,09,0.99,173.7,M,-34.1,M,0000,0000*5C
$GPRMC,205743.000,A,4123.2682,N,07358.1477,W,20.52,190.38,060417,,,D*4A
$GPGGA,205744.000,4123.2626,N,07358.1490,W,2,09,0.99,175.1,M,-34.1,M,0000,0000*5C
$GPRMC,205744.000,A,4123.2626,N,07358.1490,W,20.55,189.40,060417,,,D*4A
$GPGGA,205745.000,4123.2569,N,07358.1503,W,2,09,0.99,176.0,M,-34.1,M,0000,0000*5C
$GPRMC,205745.000,A,4123.2569,N,07358.1503,W,21.31,189.62,060417,,,D*4B
$GPGGA,205746.000,4123.2511,N,07358.1518,W,2,09,0.99,177.6,M,-34.1,M,0000,0000*5D
$GPRMC,205746.000,A,4123.2511,N,07358.1518,W,21.86,190.94,060417,,,D*40
$GPGGA,205747.000,4123.2451,N,07358.1531,W,2,09,0.99,178.8,M,-34.1,M,0000,0000*53
$GPRMC,205747.000,A,4123.2451,N,07358.1531,W,22.40,190.19,060417,,,D*43
$GPGGA,205748.000,4123.2389,N,07358.1548,W,2,09,0.99,180.1,M,-34.1,M,0000,0000*5E
$GPRMC,205748.000,A,4123.2389,N,07358.1548,W,22.88,191.06,060417,,,D*4B
$GPGGA,205749.000,4123.2326,N,07358.1563,W,2,09,0.99,181.1,M,-34.1,M,0000,0000*52
$GPRMC,205749.000,A,4123.2326,N,07358.1563,W,23.56,190.76,060417,,,D*42
$GPGGA,205750.000,4123.2262,N,07358.1577,W,2,09,0.99,182.0,M,-34.1,M,0000,0000*5C
$GPRMC,205750.000,A,4123.2262,N,07358.1577,W,23.60,187.76,060417,,,D*4D
$GPGGA,205751.000,4123.2196,N,07358.1590,W,2,09,0.99,183.0,M,-34.1,M,0000,0000*5D
$GPRMC,205751.000,A,4123.2196,N,07358.1590,W,24.37,187.22,060417,,,D*49
$GPGGA,205752.000,4123.2129,N,07358.1605,W,2,09,0.99,184.3,M,-34.1,M,0000,0000*51
$GPRMC,205752.000,A,4123.2129,N,07358.1605,W,24.61,190.92,060417,,,D*4F
$GPGGA,205753.000,4123.2062,N,07358.1622,W,2,09,0.93,183.4,M,-34.1,M,0000,0000*51
$GPRMC,205753.000,A,4123.2062,N,07358.1622,W,24.78,191.93,060417,,,D*4D
$GPGGA,205754.000,4123.1995,N,07358.1645,W,2,09,0.99,184.4,M,-34.1,M,0000,0000*58
$GPRMC,205754.000,A,4123.1995,N,07358.1645,W,24.74,192.94,060417,,,D*41
$GPGGA,205755.000,4123.1929,N,07358.1670,W,2,09,0.99,185.3,M,-34.1,M,0000,0000*5E
$GPRMC,205755.000,A,4123.1929,N,07358.1670,W,24.01,196.92,060417,,,D*41
$GPGGA,205756.000,4123.1865,N,07358.1698,W,2,09,0.99,186.9,M,-34.1,M,0000,0000*5B
$GPRMC,205756.000,A,4123.1865,N,07358.1698,W,23.94,197.77,060417,,,D*4C
$GPGGA,205757.000,4123.1804,N,07358.1729,W,2,10,0.85,188.1,M,-34.1,M,0000,0000*55
$GPRMC,205757.000,A,4123.1804,N,07358.1729,W,23.32,204.00,060417,,,D*44
$GPGGA,205758.000,4123.1745,N,07358.1763,W,2,10,0.85,189.3,M,-34.1,M,0000,0000*5D
$GPRMC,205758.000,A,4123.1745,N,07358.1763,W,22.86,204.49,060417,,,D*4C
$GPGGA,205759.000,4123.1688,N,07358.1800,W,2,10,0.85,190.3,M,-34.1,M,0000,0000*5E
$GPRMC,205759.000,A,4123.1688,N,07358.1800,W,22.92,207.42,060417,,,D*4A
$GPGGA,205800.000,4123.1632,N,07358.1838,W,2,10,0.85,191.2,M,-34.1,M,0000,0000*57
$GPRMC,205800.000,A,4123.1632,N,07358.1838,W,22.57,207.35,060417,,,D*4A
$GPGGA,205801.000,4123.1578,N,07358.1877,W,2,10,0.85,192.1,M,-34.1,M,0000,0000*50
$GPRMC,205801.000,A,4123.1578,N,07358.1877,W,22.09,209.31,060417,,,D*4C
$GPGGA,205802.000,4123.1527,N,07358.1917,W,2,10,0.85,192.5,M,-34.1,M,0000,0000*5A
$GPRMC,205802.000,A,4123.1527,N,07358.1917,W,21.05,209.18,060417,,,D*46
$GPGGA,205803.000,4123.1476,N,07358.1956,W,2,10,0.85,193.5,M,-34.1,M,0000,0000*5A
$GPRMC,205803.000,A,4123.1476,N,07358.1956,W,20.62,211.00,060417,,,D*47
$GPGGA,205804.000,4123.1428,N,07358.1997,W,2,10,0.85,194.3,M,-34.1,M,0000,0000*5A
$GPRMC,205804.000,A,4123.1428,N,07358.1997,W,20.66,212.58,060417,,,D*4C
$GPGGA,205805.000,4123.1380,N,07358.2039,W,2,10,0.85,195.0,M,-34.1,M,0000,0000*52
$GPRMC,205805.000,A,4123.1380,N,07358.2039,W,20.11,212.93,060417,,,D*41
$GPGGA,205806.000,4123.1335,N,07358.2082,W,2,10,0.85,195.7,M,-34.1,M,0000,0000*58
$GPRMC,205806.000,A,4123.1335,N,07358.2082,W,20.27,215.56,060417,,,D*47
$GPGGA,205807.000,4123.1290,N,07358.2124,W,2,10,0.85,196.8,M,-34.1,M,0000,0000*56
$GPRMC,205807.000,A,4123.1290,N,07358.2124,W,19.30,215.66,060417,,,D*4A
$GPGGA,205808.000,4123.1247,N,07358.2168,W,2,10,0.85,197.9,M,-34.1,M,0000,0000*5B
$GPRMC,205808.000,A,4123.1247,N,07358.2168,W,19.32,218.76,060417,,,D*49
$GPGGA,205809.000,4123.1206,N,07358.2214,W,2,09,0.99,198.3,M,-34.1,M,0000,0000*57
$GPRMC,205809.000,A,4123.1206,N,07358.2214,W,19.73,219.49,060417,,,D*4D
$GPGGA,205810.000,4123.1166,N,07358.2263,W,2,10,0.85,198.7,M,-34.1,M,0000,0000*5B
$GPRMC,205810.000,A,4123.1166,N,07358.2263,W,19.47,221.63,060417,,,D*44
$GPGGA,205811.000,4123.1130,N,07358.2316,W,2,10,0.85,198.5,M,-34.1,M,0000,0000*58
$GPRMC,205811.000,A,4123.1130,N,07358.2316,W,20.39,225.08,060417,,,D*4F
$GPGGA,205812.000,4123.1090,N,07358.2372,W,2,10,0.85,199.2,M,-34.1,M,0000,0000*54
$GPRMC,205812.000,A,4123.1090,N,07358.2372,W,20.94,227.69,060417,,,D*47
$GPGGA,205813.000,4123.1051,N,07358.2430,W,2,10,0.85,199.8,M,-34.1,M,0000,0000*53
$GPRMC,205813.000,A,4123.1051,N,07358.2430,W,21.24,226.66,060417,,,D*4E
$GPGGA,205814.000,4123.1011,N,07358.2490,W,2,10,0.85,200.7,M,-34.1,M,0000,0000*56
$GPRMC,205814.000,A,4123.1011,N,07358.2490,W,21.88,229.98,060417,,,D*4F
$GPGGA,205815.000,4123.0972,N,07358.2554,W,2,10,0.85,201.7,M,-34.1,M,0000,0000*52
$GPRMC,205815.000,A,4123.0972,N,07358.2554,W,22.16,233.29,060417,,,D*4F
$GPGGA,205816.000,4123.0935,N,07358.2620,W,2,10,0.85,202.8,M,-34.1,M,0000,0000*5E
$GPRMC,205816.000,A,4123.0935,N,07358.2620,W,22.16,234.00,060417,,,D*43
$GPGGA,205817.000,4123.0896,N,07358.2684,W,2,10,0.85,204.2,M,-34.1,M,0000,0000*55
$GPRMC,205817.000,A,4123.0896,N,07358.2684,W,22.13,233.12,060417,,,D*45
$GPGGA,205818.000,4123.0858,N,07358.2748,W,2,10,0.85,204.8,M,-34.1,M,0000,0000*53
$GPRMC,205818.000,A,4123.0858,N,07358.2748,W,22.11,232.17,060417,,,D*4F
$GPGGA,205819.000,4123.0820,N,07358.2814,W,2,10,0.85,205.7,M,-34.1,M,0000,0000*55
$GPRMC,205819.000,A,4123.0820,N,07358.2814,W,22.53,234.97,060417,,,D*4F
$GPGGA,205820.000,4123.0785,N,07358.2884,W,2,10,0.85,205.7,M,-34.1,M,0000,0000*56
$GPRMC,205820.000,A,4123.0785,N,07358.2884,W,23.25,235.51,060417,,,D*47
$GPGGA,205821.000,4123.0745,N,07358.2953,W,2,10,0.85,206.6,M,-34.1,M,0000,0000*52
$GPRMC,205821.000,A,4123.0745,N,07358.2953,W,23.25,234.37,060417,,,D*40
$GPGGA,205822.000,4123.0705,N,07358.3020,W,2,10,0.85,207.6,M,-34.1,M,0000,0000*58
$GPRMC,205822.000,A,4123.0705,N,07358.3020,W,23.32,231.38,060417,,,D*47
$GPGGA,205823.000,4123.0664,N,07358.3088,W,2,10,0.85,208.2,M,-34.1,M,0000,0000*56
$GPRMC,205823.000,A,4123.0664,N,07358.3088,W,23.69,232.14,060417,,,D*41
$GPGGA,205824.000,4123.0623,N,07358.3157,W,2,10,0.85,209.3,M,-34.1,M,0000,0000*51
$GPRMC,205824.000,A,4123.0623,N,07358.3157,W,23.71,232.01,060417,,,D*4B
$GPGGA,205825.000,4123.0584,N,07358.3228,W,2,10,0.85,210.1,M,-34.1,M,0000,0000*5F
$GPRMC,205825.000,A,4123.0584,N,07358.3228,W,23.86,234.50,060417,,,D*45
$GPGGA,205826.000,4123.0546,N,07358.3302,W,2,10,0.85,210.9,M,-34.1,M,0000,0000*53
$GPRMC,205826.000,A,4123.0546,N,07358.3302,W,24.16,235.91,060417,,,D*43
$GPGGA,205827.000,4123.0508,N,07358.3376,W,2,10,0.85,212.3,M,-34.1,M,0000,0000*53
$GPRMC,205827.000,A,4123.0508,N,07358.3376,W,23.47,238.00,060417,,,D*4D
$GPGGA,205828.000,4123.0477,N,07358.3451,W,2,10,0.85,213.0,M,-34.1,M,0000,0000*55
$GPRMC,205828.000,A,4123.0477,N,07358.3451,W,22.98,242.35,060417,,,D*41
$GPGGA,205829.000,4123.0452,N,07358.3529,W,2,10,0.85,213.6,M,-34.1,M,0000,0000*5B
$GPRMC,205829.000,A,4123.0452,N,07358.3529,W,22.99,249.47,060417,,,D*46
$GPGGA,205830.000,4123.0432,N,07358.3611,W,2,10,0.85,214.1,M,-34.1,M,0000,0000*5D
$GPRMC,205830.000,A,4123.0432,N,07358.3611,W,22.97,252.49,060417,,,D*4A
$GPGGA,205831.000,4123.0417,N,07358.3692,W,2,10,0.85,214.6,M,-34.1,M,0000,0000*57
$GPRMC,205831.000,A,4123.0417,N,07358.3692,W,22.23,258.42,060417,,,D*49
$GPGGA,205832.000,4123.0408,N,07358.3772,W,2,10,0.85,214.9,M,-34.1,M,0000,0000*5A
$GPRMC,205832.000,A,4123.0408,N,07358.3772,W,21.42,262.06,060417,,,D*46
$GPGGA,205833.000,4123.0403,N,07358.3853,W,2,10,0.85,214.6,M,-34.1,M,0000,0000*53
$GPRMC,205833.000,A,4123.0403,N,07358.3853,W,21.45,265.72,060417,,,D*43
$GPGGA,205834.000,4123.0402,N,07358.3931,W,2,10,0.85,214.0,M,-34.1,M,0000,0000*56
$GPRMC,205834.000,A,4123.0402,N,07358.3931,W,20.17,268.56,060417,,,D*4D
$GPGGA,205835.000,4123.0405,N,07358.4006,W,2,10,0.85,213.9,M,-34.1,M,0000,0000*54
$GPRMC,205835.000,A,4123.0405,N,07358.4006,W,19.66,274.24,060417,,,D*45
$GPGGA,205836.000,4123.0412,N,07358.4078,W,2,10,0.85,213.9,M,-34.1,M,0000,0000*58
$GPRMC,205836.000,A,4123.0412,N,07358.4078,W,18.63,278.30,060417,,,D*44
$GPGGA,205837.000,4123.0422,N,07358.4146,W,2,10,0.85,214.0,M,-34.1,M,0000,0000*58
$GPRMC,205837.000,A,4123.0422,N,07358.4146,W,18.63,281.76,060417,,,D*4E
$GPGGA,205838.000,4123.0433,N,07358.4216,W,2,10,0.85,213.9,M,-34.1,M,0000,0000*5F
$GPRMC,205838.000,A,4123.0433,N,07358.4216,W,19.48,283.56,060417,,,D*4F
$GPGGA,205839.000,4123.0447,N,07358.4287,W,2,10,0.85,214.1,M,-34.1,M,0000,0000*5A
$GPRMC,205839.000,A,4123.0447,N,07358.4287,W,19.77,283.76,060417,,,D*4B
$GPGGA,205840.000,4123.0463,N,07358.4362,W,2,10,0.85,214.6,M,-34.1,M,0000,0000*5F
$GPRMC,205840.000,A,4123.0463,N,07358.4362,W,21.87,286.31,060417,,,D*4B
$GPGGA,205841.000,4123.0484,N,07358.4440,W,2,10,0.85,215.1,M,-34.1,M,0000,0000*56
$GPRMC,205841.000,A,4123.0484,N,07358.4440,W,23.11,292.92,060417,,,D*45
$GPGGA,205842.000,4123.0510,N,07358.4521,W,2,10,0.85,215.2,M,-34.1,M,0000,0000*5C
$GPRMC,205842.000,A,4123.0510,N,07358.4521,W,24.72,293.72,060417,,,D*41
$GPGGA,205843.000,4123.0539,N,07358.4607,W,2,10,0.85,215.2,M,-34.1,M,0000,0000*51
$GPRMC,205843.000,A,4123.0539,N,07358.4607,W,25.42,293.36,060417,,,D*4E
$GPGGA,205844.000,4123.0567,N,07358.4695,W,2,10,0.85,215.5,M,-34.1,M,0000,0000*51
$GPRMC,205844.000,A,4123.0567,N,07358.4695,W,26.08,292.35,060417,,,D*46
$GPGGA,205845.000,4123.0595,N,07358.4785,W,2,10,0.82,216.2,M,-34.1,M,0000,0000*5E
$GPRMC,205845.000,A,4123.0595,N,07358.4785,W,26.05,292.62,060417,,,D*45
$GPGGA,205846.000,4123.0621,N,07358.4876,W,2,10,0.82,216.3,M,-34.1,M,0000,0000*53
$GPRMC,205846.000,A,4123.0621,N,07358.4876,W,26.31,289.47,060417,,,D*43
$GPGGA,205847.000,4123.0645,N,07358.4965,W,2,10,0.82,216.5,M,-34.1,M,0000,0000*55
$GPRMC,205847.000,A,4123.0645,N,07358.4965,W,25.12,290.09,060417,,,D*43
$GPGGA,205848.000,4123.0669,N,07358.5052,W,2,10,0.82,216.9,M,-34.1,M,0000,0000*54
$GPRMC,205848.000,A,4123.0669,N,07358.5052,W,24.11,289.93,060417,,,D*47
$GPGGA,205849.000,4123.0689,N,07358.5137,W,2,10,0.82,217.2,M,-34.1,M,0000,0000*53
$GPRMC,205849.000,A,4123.0689,N,07358.5137,W,23.54,284.35,060417,,,D*4D
$GPGGA,205850.000,4123.0705,N,07358.5225,W,2,10,0.82,217.5,M,-34.1,M,0000,0000*59
$GPRMC,205850.000,A,4123.0705,N,07358.5225,W,23.87,281.29,060417,,,D*46
$GPGGA,205851.000,4123.0714,N,07358.5314,W,2,10,0.85,217.6,M,-34.1,M,0000,0000*5F
$GPRMC,205851.000,A,4123.0714,N,07358.5314,W,24.48,274.80,060417,,,D*49
$GPGGA,205852.000,4123.0716,N,07358.5407,W,2,10,0.85,218.0,M,-34.1,M,0000,0000*52
$GPRMC,205852.000,A,4123.0716,N,07358.5407,W,24.99,269.00,060417,,,D*45
$GPGGA,205853.000,4123.0712,N,07358.5499,W,2,10,0.85,218.0,M,-34.1,M,0000,0000*50
$GPRMC,205853.000,A,4123.0712,N,07358.5499,W,24.75,263.57,060417,,,D*4D
$GPGGA,205854.000,4123.0702,N,07358.5589,W,2,10,0.85,218.0,M,-34.1,M,0000,0000*56
$GPRMC,205854.000,A,4123.0702,N,07358.5589,W,24.74,259.84,060417,,,D*4D
$GPGGA,205855.000,4123.0687,N,07358.5678,W,2,10,0.85,217.8,M,-34.1,M,0000,0000*51
$GPRMC,205855.000,A,4123.0687,N,07358.5678,W,24.75,255.43,060417,,,D*4B
$GPGGA,205856.000,4123.0666,N,07358.5765,W,2,10,0.85,217.3,M,-34.1,M,0000,0000*5B
$GPRMC,205856.000,A,4123.0666,N,07358.5765,W,25.22,250.03,060417,,,D*48
$GPGGA,205857.000,4123.0639,N,07358.5851,W,2,10,0.85,216.8,M,-34.1,M,0000,0000*52
$GPRMC,205857.000,A,4123.0639,N,07358.5851,W,26.02,243.41,060417,,,D*4E
$GPGGA,205858.000,4123.0604,N,07358.5934,W,2,10,0.82,216.2,M,-34.1,M,0000,0000*5C
$GPRMC,205858.000,A,4123.0604,N,07358.5934,W,26.19,239.00,060417,,,D*4F
$GPGGA,205859.000,4123.0565,N,07358.6017,W,2,10,0.82,215.9,M,-34.1,M,0000,0000*5A
$GPRMC,205859.000,A,4123.0565,N,07358.6017,W,26.91,236.25,060417,,,D*49
$GPGGA,205900.000,4123.0524,N,07358.6102,W,2,10,0.85,215.2,M,-34.1,M,0000,0000*5B
$GPRMC,205900.000,A,4123.0524,N,07358.6102,W,26.96,236.94,060417,,,D*49
$GPGGA,205901.000,4123.0484,N,07358.6185,W,2,10,0.82,213.9,M,-34.1,M,0000,0000*54
$GPRMC,205901.000,A,4123.0484,N,07358.6185,W,26.81,237.00,060417,,,D*46
$GPGGA,205902.000,4123.0445,N,07358.6269,W,2,10,0.82,212.8,M,-34.1,M,0000,0000*5B
$GPRMC,205902.000,A,4123.0445,N,07358.6269,W,27.32,237.78,060417,,,D*4F
$GPGGA,205903.000,4123.0406,N,07358.6358,W,2,10,0.85,212.1,M,-34.1,M,0000,0000*50
$GPRMC,205903.000,A,4123.0406,N,07358.6358,W,28.09,240.96,060417,,,D*4D
$GPGGA,205904.000,4123.0368,N,07358.6449,W,2,10,0.85,211.1,M,-34.1,M,0000,0000*5C
$GPRMC,205904.000,A,4123.0368,N,07358.6449,W,28.31,240.43,060417,,,D*41
$GPGGA,205905.000,4123.0328,N,07358.6541,W,2,09,1.07,210.0,M,-34.1,M,0000,0000*53
$GPRMC,205905.000,A,4123.0328,N,07358.6541,W,28.97,240.05,060417,,,D*43
$GPGGA,205906.000,4123.0287,N,07358.6634,W,2,09,1.07,208.8,M,-34.1,M,0000,0000*54
$GPRMC,205906.000,A,4123.0287,N,07358.6634,W,29.36,240.23,060417,,,D*4B
$GPGGA,205907.000,4123.0247,N,07358.6728,W,2,10,0.85,207.8,M,-34.1,M,0000,0000*59
$GPRMC,205907.000,A,4123.0247,N,07358.6728,W,28.67,241.12,060417,,,D*4C
$GPGGA,205908.000,4123.0209,N,07358.6819,W,2,09,1.07,206.9,M,-34.1,M,0000,0000*52
$GPRMC,205908.000,A,4123.0209,N,07358.6819,W,28.03,240.81,060417,,,D*4D
$GPGGA,205909.000,4123.0171,N,07358.6907,W,2,09,1.07,205.6,M,-34.1,M,0000,0000*5D
$GPRMC,205909.000,A,4123.0171,N,07358.6907,W,27.21,240.33,060417,,,D*48
$GPGGA,205910.000,4123.0133,N,07358.6994,W,2,09,0.97,204.6,M,-34.1,M,0000,0000*50
$GPRMC,205910.000,A,4123.0133,N,07358.6994,W,27.22,240.02,060417,,,D*4D
$GPGGA,205911.000,4123.0095,N,07358.7077,W,2,09,0.97,203.2,M,-34.1,M,0000,0000*5A
$GPRMC,205911.000,A,4123.0095,N,07358.7077,W,25.97,238.42,060417,,,D*43
$GPGGA,205912.000,4123.0058,N,07358.7159,W,2,10,0.85,201.9,M,-34.1,M,0000,0000*57
$GPRMC,205912.000,A,4123.0058,N,07358.7159,W,25.55,239.55,060417,,,D*45
$GPGGA,205913.000,4123.0022,N,07358.7241,W,2,09,1.07,200.8,M,-34.1,M,0000,0000*52
$GPRMC,205913.000,A,4123.0022,N,07358.7241,W,25.37,238.97,060417,,,D*48
$GPGGA,205914.000,4122.9986,N,07358.7320,W,2,09,1.07,199.7,M,-34.1,M,0000,0000*50
$GPRMC,205914.000,A,4122.9986,N,07358.7320,W,25.30,239.97,060417,,,D*40
$GPGGA,205915.000,4122.9950,N,07358.7402,W,2,09,1.07,198.8,M,-34.1,M,0000,0000*53
$GPRMC,205915.000,A,4122.9950,N,07358.7402,W,25.83,238.89,060417,,,D*4B
$GPGGA,205916.000,4122.9915,N,07358.7482,W,2,09,1.07,197.7,M,-34.1,M,0000,0000*59
$GPRMC,205916.000,A,4122.9915,N,07358.7482,W,24.58,239.78,060417,,,D*49
$GPGGA,205917.000,4122.9879,N,07358.7558,W,2,10,0.85,196.6,M,-34.1,M,0000,0000*56
$GPRMC,205917.000,A,4122.9879,N,07358.7558,W,24.40,238.09,060417,,,D*4B
$GPGGA,205918.000,4122.9843,N,07358.7636,W,2,09,1.07,195.5,M,-34.1,M,0000,0000*58
$GPRMC,205918.000,A,4122.9843,N,07358.7636,W,25.15,240.43,060417,,,D*46
$GPGGA,205919.000,4122.9806,N,07358.7716,W,2,09,1.07,194.8,M,-34.1,M,0000,0000*57
$GPRMC,205919.000,A,4122.9806,N,07358.7716,W,25.39,236.34,060417,,,D*4A
$GPGGA,205920.000,4122.9766,N,07358.7792,W,2,09,1.07,193.7,M,-34.1,M,0000,0000*50
$GPRMC,205920.000,A,4122.9766,N,07358.7792,W,25.36,233.52,060417,,,D*4F
$GPGGA,205921.000,4122.9722,N,07358.7864,W,2,09,1.07,192.5,M,-34.1,M,0000,0000*54
$GPRMC,205921.000,A,4122.9722,N,07358.7864,W,25.10,229.73,060417,,,D*44
$GPGGA,205922.000,4122.9676,N,07358.7933,W,2,09,1.07,191.6,M,-34.1,M,0000,0000*54
$GPRMC,205922.000,A,4122.9676,N,07358.7933,W,25.17,227.57,060417,,,D*4B
$GPGGA,205923.000,4122.9626,N,07358.7999,W,2,10,0.85,191.1,M,-34.1,M,0000,0000*54
$GPRMC,205923.000,A,4122.9626,N,07358.7999,W,25.14,224.11,060417,,,D*4D
$GPGGA,205924.000,4122.9576,N,07358.8062,W,2,10,0.85,190.6,M,-34.1,M,0000,0000*51
$GPRMC,205924.000,A,4122.9576,N,07358.8062,W,24.70,221.02,060417,,,D*4A
$GPGGA,205925.000,4122.9524,N,07358.8119,W,2,10,0.85,190.5,M,-34.1,M,0000,0000*59
$GPRMC,205925.000,A,4122.9524,N,07358.8119,W,23.84,219.30,060417,,,D*47
$GPGGA,205926.000,4122.9469,N,07358.8176,W,2,10,0.85,190.4,M,-34.1,M,0000,0000*5A
$GPRMC,205926.000,A,4122.9469,N,07358.8176,W,25.78,217.18,060417,,,D*44
$GPGGA,205927.000,4122.9411,N,07358.8228,W,2,10,0.85,190.3,M,-34.1,M,0000,0000*5B
$GPRMC,205927.000,A,4122.9411,N,07358.8228,W,24.62,211.22,060417,,,D*47
$GPGGA,205928.000,4122.9349,N,07358.8274,W,2,10,0.85,190.3,M,-34.1,M,0000,0000*57
$GPRMC,205928.000,A,4122.9349,N,07358.8274,W,25.29,208.12,060417,,,D*4E
$GPGGA,205929.000,4122.9286,N,07358.8314,W,2,10,0.85,190.2,M,-34.1,M,0000,0000*52
$GPRMC,205929.000,A,4122.9286,N,07358.8314,W,24.46,204.16,060417,,,D*4A
$GPGGA,205930.000,4122.9221,N,07358.8348,W,2,10,0.85,189.7,M,-34.1,M,0000,0000*53
$GPRMC,205930.000,A,4122.9221,N,07358.8348,W,25.14,200.83,060417,,,D*48
$GPGGA,205931.000,4122.9154,N,07358.8381,W,2,10,0.85,189.3,M,-34.1,M,0000,0000*52
$GPRMC,205931.000,A,4122.9154,N,07358.8381,W,25.51,199.64,060417,,,D*46
$GPGGA,205932.000,4122.9087,N,07358.8408,W,2,10,0.85,188.5,M,-34.1,M,0000,0000*5F
$GPRMC,205932.000,A,4122.9087,N,07358.8408,W,24.97,195.18,060417,,,D*40
$GPGGA,205933.000,4122.9019,N,07358.8432,W,2,10,0.85,188.1,M,-34.1,M,0000,0000*54
$GPRMC,205933.000,A,4122.9019,N,07358.8432,W,25.01,194.03,060417,,,D*4A
$GPGGA,205934.000,4122.8950,N,07358.8455,W,2,10,0.85,187.5,M,-34.1,M,0000,0000*5C
$GPRMC,205934.000,A,4122.8950,N,07358.8455,W,25.71,193.90,060417,,,D*43
$GPGGA,205935.000,4122.8880,N,07358.8480,W,2,10,0.85,186.5,M,-34.1,M,0000,0000*58
$GPRMC,205935.000,A,4122.8880,N,07358.8480,W,25.87,195.46,060417,,,D*42
$GPGGA,205936.000,4122.8810,N,07358.8506,W,2,10,0.85,185.4,M,-34.1,M,0000,0000*5F
$GPRMC,205936.000,A,4122.8810,N,07358.8506,W,25.91,196.01,060417,,,D*40
$GPGGA,205937.000,4122.8739,N,07358.8532,W,2,10,0.85,184.5,M,-34.1,M,0000,0000*5D
$GPRMC,205937.000,A,4122.8739,N,07358.8532,W,26.41,196.21,060417,,,D*4E
$GPGGA,205938.000,4122.8669,N,07358.8557,W,2,10,0.85,183.0,M,-34.1,M,0000,0000*57
$GPRMC,205938.000,A,4122.8669,N,07358.8557,W,26.41,194.31,060417,,,D*45
$GPGGA,205939.000,4122.8598,N,07358.8579,W,2,09,1.07,181.5,M,-34.1,M,0000,0000*53
$GPRMC,205939.000,A,4122.8598,N,07358.8579,W,26.24,192.82,060417,,,D*48
$GPGGA,205940.000,4122.8533,N,07358.8599,W,2,09,1.07,179.1,M,-34.1,M,0000,0000*51
$GPRMC,205940.000,A,4122.8533,N,07358.8599,W,25.02,193.73,060417,,,D*41
$GPGGA,205941.000,4122.8467,N,07358.8619,W,2,10,0.85,177.8,M,-34.1,M,0000,0000*5F
$GPRMC,205941.000,A,4122.8467,N,07358.8619,W,23.66,190.81,060417,,,D*41
$GPGGA,205942.000,4122.8403,N,07358.8636,W,2,09,1.00,176.8,M,-34.1,M,0000,0000*56
$GPRMC,205942.000,A,4122.8403,N,07358.8636,W,22.46,191.69,060417,,,D*49
$GPGGA,205943.000,4122.8341,N,07358.8653,W,2,10,0.85,175.9,M,-34.1,M,0000,0000*53
$GPRMC,205943.000,A,4122.8341,N,07358.8653,W,22.78,191.96,060417,,,D*47
$GPGGA,205944.000,4122.8276,N,07358.8673,W,2,09,1.07,175.3,M,-34.1,M,0000,0000*5A
$GPRMC,205944.000,A,4122.8276,N,07358.8673,W,23.78,192.98,060417,,,D*4B
$GPGGA,205945.000,4122.8207,N,07358.8694,W,2,09,1.07,174.8,M,-34.1,M,0000,0000*5E
$GPRMC,205945.000,A,4122.8207,N,07358.8694,W,25.77,193.41,060417,,,D*49
$GPGGA,205946.000,4122.8136,N,07358.8715,W,2,08,1.19,173.4,M,-34.1,M,0000,0000*51
$GPRMC,205946.000,A,4122.8136,N,07358.8715,W,26.77,192.14,060417,,,D*41
$GPGGA,205947.000,4122.8057,N,07358.8737,W,2,08,1.19,173.3,M,-34.1,M,0000,0000*51
$GPRMC,205947.000,A,4122.8057,N,07358.8737,W,28.58,192.30,060417,,,D*43
$GPGGA,205948.000,4122.7977,N,07358.8761,W,2,08,1.19,172.1,M,-34.1,M,0000,0000*5A
$GPRMC,205948.000,A,4122.7977,N,07358.8761,W,29.81,193.09,060417,,,D*45
$GPGGA,205949.000,4122.7896,N,07358.8786,W,2,08,1.19,170.4,M,-34.1,M,0000,0000*5B
$GPRMC,205949.000,A,4122.7896,N,07358.8786,W,30.73,192.98,060417,,,D*4F
$GPGGA,205950.000,4122.7814,N,07358.8812,W,2,08,1.19,168.4,M,-34.1,M,0000,0000*52
$GPRMC,205950.000,A,4122.7814,N,07358.8812,W,30.65,192.66,060417,,,D*49
$GPGGA,205951.000,4122.7729,N,07358.8837,W,2,08,1.19,167.3,M,-34.1,M,0000,0000*5D
$GPRMC,205951.000,A,4122.7729,N,07358.8837,W,31.43,192.45,060417,,,D*4A
$GPGGA,205952.000,4122.7644,N,07358.8866,W,2,09,1.00,165.9,M,-34.1,M,0000,0000*51
$GPRMC,205952.000,A,4122.7644,N,07358.8866,W,31.63,196.41,060417,,,D*45
$GPGGA,205953.000,4122.7560,N,07358.8906,W,2,09,1.00,164.7,M,-34.1,M,0000,0000*5D
$GPRMC,205953.000,A,4122.7560,N,07358.8906,W,31.96,202.50,060417,,,D*42
$GPGGA,205954.000,4122.7472,N,07358.8957,W,2,09,1.00,164.0,M,-34.1,M,0000,0000*5B
$GPRMC,205954.000,A,4122.7472,N,07358.8957,W,34.38,206.33,060417,,,D*43
$GPGGA,205955.000,4122.7386,N,07358.9019,W,2,09,1.00,162.8,M,-34.1,M,0000,0000*5A
$GPRMC,205955.000,A,4122.7386,N,07358.9019,W,36.65,210.65,060417,,,D*42
$GPGGA,205956.000,4122.7298,N,07358.9092,W,2,09,1.00,161.8,M,-34.1,M,0000,0000*57
$GPRMC,205956.000,A,4122.7298,N,07358.9092,W,37.89,212.90,060417,,,D*47
$GPGGA,205957.000,4122.7209,N,07358.9170,W,2,09,1.00,161.3,M,-34.1,M,0000,0000*58
$GPRMC,205957.000,A,4122.7209,N,07358.9170,W,38.36,214.03,060417,,,D*44
$GPGGA,205958.000,4122.7124,N,07358.9257,W,2,09,1.00,160.9,M,-34.1,M,0000,0000*56
$GPRMC,205958.000,A,4122.7124,N,07358.9257,W,38.63,219.25,060417,,,D*48
$GPGGA,205959.000,4122.7043,N,07358.9353,W,2,09,1.00,160.9,M,-34.1,M,0000,0000*52
$GPRMC,205959.000,A,4122.7043,N,07358.9353,W,39.14,223.75,060417,,,D*41
$GPGGA,210000.000,4122.6971,N,07358.9458,W,2,09,0.93,160.5,M,-34.1,M,0000,0000*51
$GPRMC,210000.000,A,4122.6971,N,07358.9458,W,38.05,229.42,060417,,,D*4A
$GPGGA,210001.000,4122.6907,N,07358.9567,W,2,09,0.93,160.9,M,-34.1,M,0000,0000*50
$GPRMC,210001.000,A,4122.6907,N,07358.9567,W,38.77,233.83,060417,,,D*44
$GPGGA,210002.000,4122.6853,N,07358.9679,W,2,09,0.93,161.4,M,-34.1,M,0000,0000*53
$GPRMC,210002.000,A,4122.6853,N,07358.9679,W,35.49,240.42,060417,,,D*42
$GPGGA,210003.000,4122.6808,N,07358.9792,W,2,10,0.85,162.2,M,-34.1,M,0000,0000*52
$GPRMC,210003.000,A,4122.6808,N,07358.9792,W,34.26,244.56,060417,,,D*40
$GPGGA,210004.000,4122.6777,N,07358.9912,W,2,10,0.85,162.7,M,-34.1,M,0000,0000*51
$GPRMC,210004.000,A,4122.6777,N,07358.9912,W,34.83,255.97,060417,,,D*44
$GPGGA,210005.000,4122.6758,N,07359.0040,W,2,10,0.85,163.1,M,-34.1,M,0000,0000*5C
$GPRMC,210005.000,A,4122.6758,N,07359.0040,W,35.61,261.65,060417,,,D*49
